{"Bamyan":{"thumbnail":"https://upload.wikimedia.org/wikipedia/commons/thumb/6/61/Black_Hawk_flying_over_a_valley_in_Bamyan.jpg/400px-Black_Hawk_flying_over_a_valley_in_Bamyan.jpg","thumbnail__source":"https://upload.wikimedia.org/wikipedia/commons/thumb/6/61/Black_Hawk_flying_over_a_valley_in_Bamyan.jpg/120px-Black_Hawk_flying_over_a_valley_in_Bamyan.jpg","lat":34.825,"lon":67.83333333,"title":"Bamyan","description":"city in Bamyan Province, Afghanistan","wb":"Q214495"},"Mazar-i-Sharif":{"thumbnail":"https://upload.wikimedia.org/wikipedia/commons/thumb/8/8c/Mi-17_helicopter_flies_over_the_northern_Afghan_city-croped.jpg/400px-Mi-17_helicopter_flies_over_the_northern_Afghan_city-croped.jpg","thumbnail__source":"https://upload.wikimedia.org/wikipedia/commons/thumb/8/8c/Mi-17_helicopter_flies_over_the_northern_Afghan_city-croped.jpg/120px-Mi-17_helicopter_flies_over_the_northern_Afghan_city-croped.jpg","lat":36.7,"lon":67.11666667,"title":"Mazar-i-Sharif","description":"capital of Balkh, Afghanistan","wb":"Q130469"},"Minaret of Jam":{"thumbnail":"https://upload.wikimedia.org/wikipedia/commons/thumb/7/74/Minaret_of_jam_2009_ghor.jpg/400px-Minaret_of_jam_2009_ghor.jpg","thumbnail__source":"File:Minaret_of_jam_2009_ghor.jpg","lat":34.39655556,"lon":64.51605556,"title":"Minaret of Jam","description":"minaret in Afghanistan"},"Shkodër":{"thumbnail":"https://upload.wikimedia.org/wikipedia/commons/thumb/0/0d/Shkoder.jpg/400px-Shkoder.jpg","thumbnail__source":"https://upload.wikimedia.org/wikipedia/commons/thumb/0/0d/Shkoder.jpg/120px-Shkoder.jpg","lat":42.06666667,"lon":19.5,"title":"Shkodër","description":"city in northwestern Albania","wb":"Q131638"},"Timgad":{"thumbnail":"https://upload.wikimedia.org/wikipedia/commons/thumb/c/c1/Timgad_Trajan.jpg/400px-Timgad_Trajan.jpg","thumbnail__source":"https://upload.wikimedia.org/wikipedia/commons/thumb/c/c1/Timgad_Trajan.jpg/120px-Timgad_Trajan.jpg","lat":35.48416667,"lon":6.46861111,"title":"Timgad","description":"municipality of Algeria","wb":"Q459629"},"Hippo Regius":{"thumbnail":"https://upload.wikimedia.org/wikipedia/commons/thumb/d/d9/Hippone.JPG/400px-Hippone.JPG","thumbnail__source":"https://upload.wikimedia.org/wikipedia/commons/thumb/d/d9/Hippone.JPG/120px-Hippone.JPG","lat":36.88333333,"lon":7.75194444,"title":"Hippo Regius","description":"ancient name for Annaba, Algeria","wb":"Q858024"},"Constantine, Algeria":{"thumbnail":"https://upload.wikimedia.org/wikipedia/commons/thumb/3/32/Pont_de_Sidi_Msid_-_constantine_%D8%AC%D8%B3%D8%B1_%D8%B3%D9%8A%D8%AF%D9%8A_%D9%85%D8%B3%D9%8A%D8%AF_-_%D9%82%D8%B3%D9%86%D8%B7%D9%8A%D9%86%D8%A9.jpg/400px-Pont_de_Sidi_Msid_-_constantine_%D8%AC%D8%B3%D8%B1_%D8%B3%D9%8A%D8%AF%D9%8A_%D9%85%D8%B3%D9%8A%D8%AF_-_%D9%82%D8%B3%D9%86%D8%B7%D9%8A%D9%86%D8%A9.jpg","thumbnail__source":"https://upload.wikimedia.org/wikipedia/commons/thumb/3/32/Pont_de_Sidi_Msid_-_constantine_%D8%AC%D8%B3%D8%B1_%D8%B3%D9%8A%D8%AF%D9%8A_%D9%85%D8%B3%D9%8A%D8%AF_-_%D9%82%D8%B3%D9%86%D8%B7%D9%8A%D9%86%D8%A9.jpg/120px-Pont_de_Sidi_Msid_-_constantine_%D8%AC%D8%B3%D8%B1_%D8%B3%D9%8A%D8%AF%D9%8A_%D9%85%D8%B3%D9%8A%D8%AF_-_%D9%82%D8%B3%D9%86%D8%B7%D9%8A%D9%86%D8%A9.jpg","lat":36.35,"lon":6.6,"title":"Constantine, Algeria","description":"city in Algeria","wb":"Q187346"},"Guelma":{"thumbnail":"https://upload.wikimedia.org/wikipedia/commons/thumb/f/f8/GM_Guelma_Center01.jpg/400px-GM_Guelma_Center01.jpg","thumbnail__source":"https://upload.wikimedia.org/wikipedia/commons/thumb/f/f8/GM_Guelma_Center01.jpg/93px-GM_Guelma_Center01.jpg","lat":36.45,"lon":7.43333333,"title":"Guelma","description":"town in Algeria","wb":"Q609871"},"Tipasa":{"thumbnail":"https://upload.wikimedia.org/wikipedia/commons/thumb/0/0d/Tipasa_remain_2.JPG/400px-Tipasa_remain_2.JPG","thumbnail__source":"https://upload.wikimedia.org/wikipedia/commons/thumb/0/0d/Tipasa_remain_2.JPG/120px-Tipasa_remain_2.JPG","lat":36.59194444,"lon":2.44944444,"title":"Tipasa","description":"World Heritage Site","wb":"Q214843"},"Sahara":{"thumbnail":"https://upload.wikimedia.org/wikipedia/commons/thumb/a/a7/Sahara_satellite_hires.jpg/400px-Sahara_satellite_hires.jpg","thumbnail__source":"https://upload.wikimedia.org/wikipedia/commons/thumb/a/a7/Sahara_satellite_hires.jpg/120px-Sahara_satellite_hires.jpg","lat":23,"lon":13,"title":"Sahara","description":"desert in Africa","wb":"Q6583"},"Saharan Atlas":{"thumbnail":"https://upload.wikimedia.org/wikipedia/commons/thumb/d/db/Vue_d_Ain_Sefra%2C_Alg%C3%A9rie.jpg/400px-Vue_d_Ain_Sefra%2C_Alg%C3%A9rie.jpg","thumbnail__source":"https://upload.wikimedia.org/wikipedia/commons/thumb/d/db/Vue_d_Ain_Sefra%2C_Alg%C3%A9rie.jpg/120px-Vue_d_Ain_Sefra%2C_Alg%C3%A9rie.jpg","lat":34,"lon":2,"title":"Saharan Atlas","description":"mountains in Algeria","wb":"Q1898305"},"Djelfa":{"thumbnail":"https://upload.wikimedia.org/wikipedia/commons/thumb/6/6f/A%C3%AFn_Chouhada88.jpg/400px-A%C3%AFn_Chouhada88.jpg","thumbnail__source":"https://upload.wikimedia.org/wikipedia/commons/thumb/6/6f/A%C3%AFn_Chouhada88.jpg/120px-A%C3%AFn_Chouhada88.jpg","lat":34.66666667,"lon":3.25,"title":"Djelfa","description":"city in Djelfa Province, Algeria"},"Skikda":{"thumbnail":"https://upload.wikimedia.org/wikipedia/commons/thumb/3/37/Skikda2.jpg/400px-Skikda2.jpg","thumbnail__source":"https://upload.wikimedia.org/wikipedia/commons/thumb/3/37/Skikda2.jpg/120px-Skikda2.jpg","lat":36.86666667,"lon":6.9,"title":"Skikda","description":"city in Algeria"},"Ghazaouet":{"thumbnail":"https://upload.wikimedia.org/wikipedia/commons/thumb/c/c2/Ghazaouet_Paysages.jpg/400px-Ghazaouet_Paysages.jpg","thumbnail__source":"https://upload.wikimedia.org/wikipedia/commons/thumb/c/c2/Ghazaouet_Paysages.jpg/120px-Ghazaouet_Paysages.jpg","lat":35.1,"lon":-1.85,"title":"Ghazaouet","description":"town and commune in Algeria"},"Tlemcen":{"thumbnail":"https://upload.wikimedia.org/wikipedia/commons/thumb/1/1a/Tlemcen_multi_image.jpg/400px-Tlemcen_multi_image.jpg","thumbnail__source":"https://upload.wikimedia.org/wikipedia/commons/thumb/1/1a/Tlemcen_multi_image.jpg/92px-Tlemcen_multi_image.jpg","lat":34.8827758,"lon":-1.3166696,"title":"Tlemcen","description":"city in Algeria"},"Barbuda":{"thumbnail":"https://upload.wikimedia.org/wikipedia/commons/thumb/9/95/Barbuda_ISS008-E-7945.jpg/400px-Barbuda_ISS008-E-7945.jpg","thumbnail__source":"https://upload.wikimedia.org/wikipedia/commons/thumb/9/95/Barbuda_ISS008-E-7945.jpg/120px-Barbuda_ISS008-E-7945.jpg","lat":17.63638889,"lon":-61.80833333,"title":"Barbuda","description":"island in Antigua and Barbuda"},"Falmouth, Antigua and Barbuda":{"thumbnail":"https://upload.wikimedia.org/wikipedia/commons/thumb/2/24/English_Harbour_and_Falmouth_Harbour_on_Antigua.jpg/400px-English_Harbour_and_Falmouth_Harbour_on_Antigua.jpg","thumbnail__source":"https://upload.wikimedia.org/wikipedia/commons/thumb/2/24/English_Harbour_and_Falmouth_Harbour_on_Antigua.jpg/120px-English_Harbour_and_Falmouth_Harbour_on_Antigua.jpg","lat":17.01666667,"lon":-61.78333333,"title":"Falmouth, Antigua and Barbuda","description":"town in Antigua"},"Córdoba, Argentina":{"thumbnail":"https://upload.wikimedia.org/wikipedia/commons/thumb/9/91/Montaje_CBA_9.jpg/400px-Montaje_CBA_9.jpg","thumbnail__source":"https://upload.wikimedia.org/wikipedia/commons/thumb/9/91/Montaje_CBA_9.jpg/82px-Montaje_CBA_9.jpg","lat":-31.41666667,"lon":-64.18333333,"title":"Córdoba, Argentina","description":"city in Argentina, capital of its province"},"Plaza de Mayo":{"thumbnail":"https://upload.wikimedia.org/wikipedia/commons/thumb/f/fa/Location_Buenos_Aires_City.png/400px-Location_Buenos_Aires_City.png","thumbnail__source":"https://upload.wikimedia.org/wikipedia/commons/thumb/f/fa/Location_Buenos_Aires_City.png/107px-Location_Buenos_Aires_City.png","lat":-34.60833333,"lon":-58.37194444,"title":"Plaza de Mayo","description":"square in Buenos Aires, Argentina"},"Bariloche":{"thumbnail":"https://upload.wikimedia.org/wikipedia/commons/thumb/6/65/CENTRO_CIVICO_38.jpg/400px-CENTRO_CIVICO_38.jpg","thumbnail__source":"https://upload.wikimedia.org/wikipedia/commons/thumb/6/65/CENTRO_CIVICO_38.jpg/80px-CENTRO_CIVICO_38.jpg","lat":-41.15,"lon":-71.3,"title":"Bariloche","description":"city in the province of Río Negro in Argentina"},"Andes":{"thumbnail":"https://upload.wikimedia.org/wikipedia/commons/thumb/1/17/Cordillera_de_los_Andes.jpg/400px-Cordillera_de_los_Andes.jpg","thumbnail__source":"https://upload.wikimedia.org/wikipedia/commons/thumb/1/17/Cordillera_de_los_Andes.jpg/120px-Cordillera_de_los_Andes.jpg","lat":-32,"lon":-70,"title":"Andes","description":"mountain range running along the western side of South America"},"Perito Moreno Glacier":{"thumbnail":"https://upload.wikimedia.org/wikipedia/commons/thumb/5/5c/Perito_Moreno_Glacier_Patagonia_Argentina_Luca_Galuzzi_2005.JPG/400px-Perito_Moreno_Glacier_Patagonia_Argentina_Luca_Galuzzi_2005.JPG","thumbnail__source":"File:Perito_Moreno_Glacier_Patagonia_Argentina_Luca_Galuzzi_2005.JPG","lat":-50.5,"lon":-73.13333333,"title":"Perito Moreno Glacier","description":"Excursions to Perito Moreno glacier by bus, or use a recommended Argentine travel agency to arrange private trips for ice walking, drinking whiskey with glaciar ice, among many other possible activities."},"Puerto Madryn":{"thumbnail":"https://upload.wikimedia.org/wikipedia/commons/thumb/3/3a/Vista_de_Puerto_Madryn%2C_Argentina.jpg/320px-Vista_de_Puerto_Madryn%2C_Argentina.jpg","thumbnail__source":"File:Vista_de_Puerto_Madryn,_Argentina.jpg","lat":-42.76666667,"lon":-65.05,"title":"Puerto Madryn","description":"Coastal city in the province of Chubut, in Argentine Patagonia."},"Punta Tombo":{"thumbnail":"https://upload.wikimedia.org/wikipedia/commons/thumb/2/2e/Chubut-PuntaTombo-P2220157b-small.jpg/400px-Chubut-PuntaTombo-P2220157b-small.jpg","thumbnail__source":"https://upload.wikimedia.org/wikipedia/commons/thumb/2/2e/Chubut-PuntaTombo-P2220157b-small.jpg/90px-Chubut-PuntaTombo-P2220157b-small.jpg","lat":-44.04,"lon":-65.2,"title":"Punta Tombo","description":"protected area"},"Los Glaciares National Park":{"thumbnail":"https://upload.wikimedia.org/wikipedia/commons/thumb/0/02/Relief_Map_of_Argentina.jpg/400px-Relief_Map_of_Argentina.jpg","thumbnail__source":"File:Relief_Map_of_Argentina.jpg","lat":-50,"lon":-73.24944444,"title":"Los Glaciares National Park","description":"national park of Argentina"},"Argentino Lake":{"thumbnail":"https://upload.wikimedia.org/wikipedia/commons/thumb/c/c7/Lake_Argentino_northern_arm_Lago_Argentino_Brazo_Norte_Patagonia_Argentina_Luca_Galuzzi_2005.JPG/400px-Lake_Argentino_northern_arm_Lago_Argentino_Brazo_Norte_Patagonia_Argentina_Luca_Galuzzi_2005.JPG","thumbnail__source":"https://upload.wikimedia.org/wikipedia/commons/thumb/c/c7/Lake_Argentino_northern_arm_Lago_Argentino_Brazo_Norte_Patagonia_Argentina_Luca_Galuzzi_2005.JPG/120px-Lake_Argentino_northern_arm_Lago_Argentino_Brazo_Norte_Patagonia_Argentina_Luca_Galuzzi_2005.JPG","lat":-50.21666667,"lon":-72.41666667,"title":"Argentino Lake","description":"glacial lake"},"Talampaya National Park":{"thumbnail":"https://upload.wikimedia.org/wikipedia/commons/thumb/a/a5/Talampaya_NP.jpg/400px-Talampaya_NP.jpg","thumbnail__source":"https://upload.wikimedia.org/wikipedia/commons/thumb/a/a5/Talampaya_NP.jpg/120px-Talampaya_NP.jpg","lat":-29.8,"lon":-67.83333333,"title":"Talampaya National Park","description":"national park of Argentina"},"San Antonio Oeste":{"thumbnail":"https://upload.wikimedia.org/wikipedia/commons/thumb/c/cb/Segunda_y_Tercera.JPG/400px-Segunda_y_Tercera.JPG","thumbnail__source":"https://upload.wikimedia.org/wikipedia/commons/thumb/c/cb/Segunda_y_Tercera.JPG/120px-Segunda_y_Tercera.JPG","lat":-40.73333333,"lon":-64.95,"title":"San Antonio Oeste","description":"city in Río Negro, Argentina"},"Salta Province":{"thumbnail":"https://upload.wikimedia.org/wikipedia/commons/thumb/5/56/Cabildo_-_Salta_%285708%29.jpg/320px-Cabildo_-_Salta_%285708%29.jpg","thumbnail__source":"File:Cabildo_-_Salta_(5708).jpg","lat":-24.78333333,"lon":-65.41666667,"title":"Salta Province","description":"province of Argentina"},"Mar del Plata":{"thumbnail":"https://upload.wikimedia.org/wikipedia/commons/thumb/7/78/MDQMontage.jpg/400px-MDQMontage.jpg","thumbnail__source":"https://upload.wikimedia.org/wikipedia/commons/thumb/7/78/MDQMontage.jpg/83px-MDQMontage.jpg","lat":-38,"lon":-57.55,"title":"Mar del Plata","description":"city in Buenos Aires Province, Argentina"},"Zvartnots, Armenia":{"thumbnail":"https://upload.wikimedia.org/wikipedia/commons/thumb/5/56/Armenia_adm_location_map.svg/400px-Armenia_adm_location_map.svg.png","thumbnail__source":"https://upload.wikimedia.org/wikipedia/commons/thumb/5/56/Armenia_adm_location_map.svg/117px-Armenia_adm_location_map.svg.png","lat":40.1625,"lon":44.40333333,"title":"Zvartnots, Armenia","description":"town in Armenia"},"Etchmiadzin Cathedral":{"thumbnail":"https://upload.wikimedia.org/wikipedia/commons/thumb/6/6f/%D4%B7%D5%BB%D5%B4%D5%AB%D5%A1%D5%AE%D5%B6%D5%AB_%D5%84%D5%A1%D5%B5%D6%80_%D5%8F%D5%A1%D5%B3%D5%A1%D6%80.jpg/400px-%D4%B7%D5%BB%D5%B4%D5%AB%D5%A1%D5%AE%D5%B6%D5%AB_%D5%84%D5%A1%D5%B5%D6%80_%D5%8F%D5%A1%D5%B3%D5%A1%D6%80.jpg","thumbnail__source":"File:Էջմիածնի_Մայր_Տաճար.jpg","lat":40.161769,"lon":44.291164,"title":"Etchmiadzin Cathedral","description":"Founded in 301 by St. Gregory the Illuminator and rebuilt and added to for over 1,700 years, Echmiadzin now is the heart of the Armenian Church, and seat of the Catholicos of all Armenians. The altar is built over an ancient pagan fire worshiping pit (accessible from the museum behind the altar), the inside has interesting frescoes, altar, lamps, and thrones. The intricate bell tower entrance is an addition from the 1800s, and the surrounding grounds have gardens with examples of khachkars from throughout Armenia and further. Near the new entrance gates are a few exquisite khachkar examples from Jugha (now in Azerbaijan) - which had by far the largest khachkar collection in the world. The thousands of khachkars which remained there were destroyed during this decade by the Azeri government. In autumn 2018 the cathedral interior is a building site, though services continue - this work will probably drag on into 2019. The Treasury is unaffected and well-worth seeing, though the star exhibit, the Roman Geghard or \"Spear used at the Cross\", is on loan to NY Met Museum until mid-Feb 2019."},"Vagharshapat":{"thumbnail":"https://upload.wikimedia.org/wikipedia/commons/thumb/6/6f/%D4%B7%D5%BB%D5%B4%D5%AB%D5%A1%D5%AE%D5%B6%D5%AB_%D5%84%D5%A1%D5%B5%D6%80_%D5%8F%D5%A1%D5%B3%D5%A1%D6%80.jpg/400px-%D4%B7%D5%BB%D5%B4%D5%AB%D5%A1%D5%AE%D5%B6%D5%AB_%D5%84%D5%A1%D5%B5%D6%80_%D5%8F%D5%A1%D5%B3%D5%A1%D6%80.jpg","thumbnail__source":"https://upload.wikimedia.org/wikipedia/commons/thumb/6/6f/%D4%B7%D5%BB%D5%B4%D5%AB%D5%A1%D5%AE%D5%B6%D5%AB_%D5%84%D5%A1%D5%B5%D6%80_%D5%8F%D5%A1%D5%B3%D5%A1%D6%80.jpg/120px-%D4%B7%D5%BB%D5%B4%D5%AB%D5%A1%D5%AE%D5%B6%D5%AB_%D5%84%D5%A1%D5%B5%D6%80_%D5%8F%D5%A1%D5%B3%D5%A1%D6%80.jpg","lat":40.17277778,"lon":44.2925,"title":"Vagharshapat","description":"city in Armenia"},"Sanahin":{"thumbnail":"https://upload.wikimedia.org/wikipedia/commons/thumb/8/83/View_of_Sanahin%2C_Debed_Valley.jpg/400px-View_of_Sanahin%2C_Debed_Valley.jpg","thumbnail__source":"https://upload.wikimedia.org/wikipedia/commons/thumb/8/83/View_of_Sanahin%2C_Debed_Valley.jpg/120px-View_of_Sanahin%2C_Debed_Valley.jpg","lat":41.087924,"lon":44.667985,"title":"Sanahin","description":"village in Lori Province of Armenia"},"Haghpat Monastery":{"thumbnail":"https://upload.wikimedia.org/wikipedia/commons/thumb/0/05/Monasterio_de_Haghpat%2C_Armenia%2C_2016-09-30%2C_DD_19.jpg/400px-Monasterio_de_Haghpat%2C_Armenia%2C_2016-09-30%2C_DD_19.jpg","thumbnail__source":"File:Monasterio_de_Haghpat,_Armenia,_2016-09-30,_DD_19.jpg","lat":41.093889,"lon":44.711944,"title":"Haghpat Monastery","description":"Part of the same UNESCO site as Sanahin, you'll have a hard time choosing a favourite. The labyrinth of passages, chambers, khachkars and views will leave you wondering how this masterpiece was built."},"Haghpat":{"thumbnail":"https://upload.wikimedia.org/wikipedia/commons/thumb/7/70/%D5%8E%D5%A1%D5%B6%D5%A1%D5%AF%D5%A1%D5%B6_%D5%80%D5%A1%D5%B4%D5%A1%D5%AC%D5%AB%D6%80_%D5%80%D5%A1%D5%B2%D5%BA%D5%A1%D5%BF_003.jpg/400px-%D5%8E%D5%A1%D5%B6%D5%A1%D5%AF%D5%A1%D5%B6_%D5%80%D5%A1%D5%B4%D5%A1%D5%AC%D5%AB%D6%80_%D5%80%D5%A1%D5%B2%D5%BA%D5%A1%D5%BF_003.jpg","thumbnail__source":"https://upload.wikimedia.org/wikipedia/commons/thumb/7/70/%D5%8E%D5%A1%D5%B6%D5%A1%D5%AF%D5%A1%D5%B6_%D5%80%D5%A1%D5%B4%D5%A1%D5%AC%D5%AB%D6%80_%D5%80%D5%A1%D5%B2%D5%BA%D5%A1%D5%BF_003.jpg/120px-%D5%8E%D5%A1%D5%B6%D5%A1%D5%AF%D5%A1%D5%B6_%D5%80%D5%A1%D5%B4%D5%A1%D5%AC%D5%AB%D6%80_%D5%80%D5%A1%D5%B2%D5%BA%D5%A1%D5%BF_003.jpg","lat":41.095,"lon":44.71027778,"title":"Haghpat","description":"village in Lori Province of Armenia"},"Zvartnots Cathedral":{"thumbnail":"https://upload.wikimedia.org/wikipedia/commons/thumb/6/6b/Zvartnots_cathedral_ruins.jpg/400px-Zvartnots_cathedral_ruins.jpg","thumbnail__source":"File:Zvartnots_cathedral_ruins.jpg","lat":40.159714,"lon":44.336575,"title":"Zvartnots Cathedral","description":"Ruins of cathedral built 643-652 by the order of Catholicos Nerses. It's a 3-tiered rotunda on a platform (ramp on right) with a small museum."},"Noravank":{"thumbnail":"https://upload.wikimedia.org/wikipedia/commons/thumb/f/f1/Noravank.JPG/400px-Noravank.JPG","thumbnail__source":"https://upload.wikimedia.org/wikipedia/commons/thumb/f/f1/Noravank.JPG/120px-Noravank.JPG","lat":39.684061,"lon":45.232872,"title":"Noravank","description":"monastery"},"Tatevi Anapat":{"thumbnail":"https://upload.wikimedia.org/wikipedia/commons/thumb/4/44/Tatevi_Anapat.jpg/400px-Tatevi_Anapat.jpg","thumbnail__source":"https://upload.wikimedia.org/wikipedia/commons/thumb/4/44/Tatevi_Anapat.jpg/120px-Tatevi_Anapat.jpg","lat":39.387665,"lon":46.260806,"title":"Tatevi Anapat"},"Khor Virap":{"thumbnail":"https://upload.wikimedia.org/wikipedia/commons/thumb/6/6e/Monasterio_Khor_Virap%2C_Armenia%2C_2016-10-01%2C_DD_25.jpg/400px-Monasterio_Khor_Virap%2C_Armenia%2C_2016-10-01%2C_DD_25.jpg","thumbnail__source":"https://upload.wikimedia.org/wikipedia/commons/thumb/6/6e/Monasterio_Khor_Virap%2C_Armenia%2C_2016-10-01%2C_DD_25.jpg/120px-Monasterio_Khor_Virap%2C_Armenia%2C_2016-10-01%2C_DD_25.jpg","lat":39.878333,"lon":44.576111,"title":"Khor Virap","description":"cultural heritage monument of Armenia"},"Mount Ararat":{"thumbnail":"https://upload.wikimedia.org/wikipedia/commons/thumb/7/75/Mount_Ararat_and_the_Yerevan_skyline_in_spring_%2850mm%29.jpg/400px-Mount_Ararat_and_the_Yerevan_skyline_in_spring_%2850mm%29.jpg","thumbnail__source":"https://upload.wikimedia.org/wikipedia/commons/thumb/7/75/Mount_Ararat_and_the_Yerevan_skyline_in_spring_%2850mm%29.jpg/120px-Mount_Ararat_and_the_Yerevan_skyline_in_spring_%2850mm%29.jpg","lat":39.70188333,"lon":44.29831667,"title":"Mount Ararat","description":"large peak in Turkey near Armenia"},"Yerevan Cascade":{"thumbnail":"https://upload.wikimedia.org/wikipedia/commons/thumb/2/2e/Cafesjian_Center_for_the_Arts_%28CCA_1%29.jpg/400px-Cafesjian_Center_for_the_Arts_%28CCA_1%29.jpg","thumbnail__source":"File:Cafesjian_Center_for_the_Arts_(CCA_1).jpg","lat":40.19111111,"lon":44.51555556,"title":"Yerevan Cascade","description":"The Sculpture Park is a small green zone in the immediate North of the Opera. Sculptures from Botero and other artists of international fame decorate the park. The park is part of Cafesjian Museum - the Armenian version of Guggenheim. The main part of the museum is in the Cascades - an Art Deco version of the Hanging Gardens of Babylon stretching nearly the height of the Empire State Building. It's a massive white stairway up a hillside of central Yerevan, decorated with green stretches, fountains and waterfalls. Higher level of the Cascades give a spectacular view of Mount Ararat and panorama of central Yerevan with its hilariously multi-colour roofs. The first floor and the bookstore of the museum as well as the indoor escalators to the top of the Cascades are free of charge."},"Lake Sevan":{"thumbnail":"https://upload.wikimedia.org/wikipedia/commons/thumb/1/1c/Sevan_Armenia_%D0%A1%D0%B5%D0%B2%D0%B0%D0%BD_%D0%90%D1%80%D0%BC%D0%B5%D0%BD%D0%B8%D1%8F.jpeg/400px-Sevan_Armenia_%D0%A1%D0%B5%D0%B2%D0%B0%D0%BD_%D0%90%D1%80%D0%BC%D0%B5%D0%BD%D0%B8%D1%8F.jpeg","thumbnail__source":"https://upload.wikimedia.org/wikipedia/commons/thumb/1/1c/Sevan_Armenia_%D0%A1%D0%B5%D0%B2%D0%B0%D0%BD_%D0%90%D1%80%D0%BC%D0%B5%D0%BD%D0%B8%D1%8F.jpeg/120px-Sevan_Armenia_%D0%A1%D0%B5%D0%B2%D0%B0%D0%BD_%D0%90%D1%80%D0%BC%D0%B5%D0%BD%D0%B8%D1%8F.jpeg","lat":40.31666667,"lon":45.35,"title":"Lake Sevan","description":"lake in Armenia"},"Garni":{"thumbnail":"https://upload.wikimedia.org/wikipedia/commons/thumb/5/54/Garni_Village.JPG/400px-Garni_Village.JPG","thumbnail__source":"File:Garni_Village.JPG","lat":40.11944444,"lon":44.72305556,"title":"Garni","description":"village in Kotayk Province of Armenia"},"Mildura":{"thumbnail":"https://upload.wikimedia.org/wikipedia/commons/thumb/f/f2/LangreeAvenueMildura_2007.jpg/400px-LangreeAvenueMildura_2007.jpg","thumbnail__source":"https://upload.wikimedia.org/wikipedia/commons/thumb/f/f2/LangreeAvenueMildura_2007.jpg/120px-LangreeAvenueMildura_2007.jpg","lat":-34.18888889,"lon":142.15833333,"title":"Mildura","description":"city in Victoria, Australia"},"Newcastle, New South Wales":{"thumbnail":"https://upload.wikimedia.org/wikipedia/commons/thumb/4/49/2_christ_church_cathedral.jpg/400px-2_christ_church_cathedral.jpg","thumbnail__source":"https://upload.wikimedia.org/wikipedia/commons/thumb/4/49/2_christ_church_cathedral.jpg/120px-2_christ_church_cathedral.jpg","lat":-32.91666667,"lon":151.75,"title":"Newcastle, New South Wales","description":"city in New South Wales, Australia"},"Ballarat":{"thumbnail":"https://upload.wikimedia.org/wikipedia/commons/thumb/c/ca/Morning_Flight_%2812581075443%29.jpg/400px-Morning_Flight_%2812581075443%29.jpg","thumbnail__source":"https://upload.wikimedia.org/wikipedia/commons/thumb/c/ca/Morning_Flight_%2812581075443%29.jpg/120px-Morning_Flight_%2812581075443%29.jpg","lat":-37.55,"lon":143.85,"title":"Ballarat","description":"city in Victoria, Australia"},"Tasmania":{"thumbnail":"https://upload.wikimedia.org/wikipedia/commons/thumb/7/72/Tasmania.A2005320.2355.250m.jpg/320px-Tasmania.A2005320.2355.250m.jpg","thumbnail__source":"File:Tasmania.A2005320.2355.250m.jpg","lat":-42,"lon":147,"title":"Tasmania","description":"island state of Australia"},"Fremantle":{"thumbnail":"https://upload.wikimedia.org/wikipedia/commons/thumb/6/6d/Aerial_view_of_Fremantle.JPG/400px-Aerial_view_of_Fremantle.JPG","thumbnail__source":"File:Aerial_view_of_Fremantle.JPG","lat":-32.05694444,"lon":115.74388889,"title":"Fremantle","description":"port city in Western Australia"},"Western Australia":{"thumbnail":"https://upload.wikimedia.org/wikipedia/commons/thumb/0/06/WAHighways.png/320px-WAHighways.png","thumbnail__source":"File:WAHighways.png","lat":-26,"lon":121,"title":"Western Australia","description":"state in Australia"},"Uluru":{"thumbnail":"https://upload.wikimedia.org/wikipedia/commons/thumb/5/53/Australia_Northern_Territory_relief_location_map.png/400px-Australia_Northern_Territory_relief_location_map.png","thumbnail__source":"File:Australia_Northern_Territory_relief_location_map.png","lat":-25.345,"lon":131.03611111,"title":"Uluru","description":"large sandstone rock formation in Australia"},"AFL Grand Final":{"thumbnail":"https://upload.wikimedia.org/wikipedia/commons/thumb/6/6d/Afl_grand_final.jpg/400px-Afl_grand_final.jpg","thumbnail__source":"https://upload.wikimedia.org/wikipedia/commons/thumb/6/6d/Afl_grand_final.jpg/120px-Afl_grand_final.jpg","lat":-37.82,"lon":144.98333333,"title":"AFL Grand Final","description":"Australian rules football match to decide the premier of a Victorian Football League or Australian Football League season"},"Australian Open":{"lat":-37.82166667,"lon":144.97833333,"title":"Australian Open","description":"Australian Open Tennis Championships","thumbnail":"https://upload.wikimedia.org/wikipedia/commons/thumb/c/cd/Melbourne_cup_1881.jpg/400px-Melbourne_cup_1881.jpg","thumbnail__source":"File:Melbourne_cup_1881.jpg"},"Melbourne Park":{"thumbnail":"https://upload.wikimedia.org/wikipedia/commons/thumb/1/14/Melbourne_Park_-_Tennis.jpg/400px-Melbourne_Park_-_Tennis.jpg","thumbnail__source":"https://upload.wikimedia.org/wikipedia/commons/thumb/1/14/Melbourne_Park_-_Tennis.jpg/120px-Melbourne_Park_-_Tennis.jpg","lat":-37.82267,"lon":144.98005,"title":"Melbourne Park","description":"sporting complex in Melbourne, Victoria, Australia"},"Rod Laver Arena":{"thumbnail":"https://upload.wikimedia.org/wikipedia/commons/thumb/3/3d/Rod_laver_arena_by_night.jpg/400px-Rod_laver_arena_by_night.jpg","thumbnail__source":"https://upload.wikimedia.org/wikipedia/commons/thumb/3/3d/Rod_laver_arena_by_night.jpg/120px-Rod_laver_arena_by_night.jpg","lat":-37.82166667,"lon":144.97833333,"title":"Rod Laver Arena","description":"tennis stadium in Melbourne, Australia"},"Sydney Olympic Park":{"thumbnail":"https://upload.wikimedia.org/wikipedia/commons/thumb/c/cd/Stadium_Australia_2.jpg/400px-Stadium_Australia_2.jpg","thumbnail__source":"File:Stadium_Australia_2.jpg","lat":-33.84801,"lon":151.06488,"title":"Sydney Olympic Park","description":"suburb of Sydney, New South Wales, Australia"},"Melbourne Cup":{"thumbnail":"https://upload.wikimedia.org/wikipedia/commons/thumb/c/cd/Melbourne_cup_1881.jpg/400px-Melbourne_cup_1881.jpg","thumbnail__source":"https://upload.wikimedia.org/wikipedia/commons/thumb/c/cd/Melbourne_cup_1881.jpg/120px-Melbourne_cup_1881.jpg","lat":-37.79082778,"lon":144.91172778,"title":"Melbourne Cup","description":"horse race"},"Bondi Beach":{"thumbnail":"https://upload.wikimedia.org/wikipedia/commons/thumb/e/e5/Bondi_Beach_Sydney_Australia_7.jpg/400px-Bondi_Beach_Sydney_Australia_7.jpg","thumbnail__source":"https://upload.wikimedia.org/wikipedia/commons/thumb/e/e5/Bondi_Beach_Sydney_Australia_7.jpg/120px-Bondi_Beach_Sydney_Australia_7.jpg","lat":-33.89102,"lon":151.277726,"title":"Bondi Beach","description":"suburb in Sydney, New South Wales, Australia"},"Currawinya National Park":{"thumbnail":"https://upload.wikimedia.org/wikipedia/commons/thumb/7/78/Australia_Queensland_relief_location_map.jpg/400px-Australia_Queensland_relief_location_map.jpg","thumbnail__source":"https://upload.wikimedia.org/wikipedia/commons/thumb/7/78/Australia_Queensland_relief_location_map.jpg/91px-Australia_Queensland_relief_location_map.jpg","lat":-28.65,"lon":144.4,"title":"Currawinya National Park","description":"national park near Hungerford in South West Queensland, Australia"},"Bundaberg":{"thumbnail":"https://upload.wikimedia.org/wikipedia/commons/thumb/3/36/Bundaberg_collage.png/400px-Bundaberg_collage.png","thumbnail__source":"https://upload.wikimedia.org/wikipedia/commons/thumb/3/36/Bundaberg_collage.png/80px-Bundaberg_collage.png","lat":-24.85,"lon":152.35,"title":"Bundaberg","description":"city in Queensland"},"Townsville":{"thumbnail":"https://upload.wikimedia.org/wikipedia/commons/thumb/6/6e/Ross_River_flowing_through_Townsville_CBD.jpg/400px-Ross_River_flowing_through_Townsville_CBD.jpg","thumbnail__source":"https://upload.wikimedia.org/wikipedia/commons/thumb/6/6e/Ross_River_flowing_through_Townsville_CBD.jpg/120px-Ross_River_flowing_through_Townsville_CBD.jpg","lat":-19.25638889,"lon":146.81833333,"title":"Townsville","description":"city in Queensland, Australia"},"Birdsville":{"thumbnail":"https://upload.wikimedia.org/wikipedia/commons/thumb/2/2f/Birdsville_Hotel.jpg/400px-Birdsville_Hotel.jpg","thumbnail__source":"https://upload.wikimedia.org/wikipedia/commons/thumb/2/2f/Birdsville_Hotel.jpg/120px-Birdsville_Hotel.jpg","lat":-25.89888889,"lon":139.35166667,"title":"Birdsville","description":"town in Queensland, Australia"},"Grossglockner High Alpine Road":{"thumbnail":"https://upload.wikimedia.org/wikipedia/commons/thumb/3/3c/Grossglockner_road.jpg/400px-Grossglockner_road.jpg","thumbnail__source":"https://upload.wikimedia.org/wikipedia/commons/thumb/3/3c/Grossglockner_road.jpg/120px-Grossglockner_road.jpg","lat":47.08333333,"lon":12.84277778,"title":"Grossglockner High Alpine Road","description":"Austrian mountain pass"},"Wachau":{"thumbnail":"https://upload.wikimedia.org/wikipedia/commons/thumb/8/8d/Wachau_%282%29.JPG/400px-Wachau_%282%29.JPG","thumbnail__source":"https://upload.wikimedia.org/wikipedia/commons/thumb/8/8d/Wachau_%282%29.JPG/120px-Wachau_%282%29.JPG","lat":48.36444444,"lon":15.43416667,"title":"Wachau","description":"valley in Austria"},"Dunkelsteinerwald":{"thumbnail":"https://upload.wikimedia.org/wikipedia/commons/thumb/4/49/Dunkelsteinerwald_grafik_b.png/400px-Dunkelsteinerwald_grafik_b.png","thumbnail__source":"https://upload.wikimedia.org/wikipedia/commons/thumb/4/49/Dunkelsteinerwald_grafik_b.png/120px-Dunkelsteinerwald_grafik_b.png","lat":48.3086,"lon":15.5242,"title":"Dunkelsteinerwald","description":"mountain range"},"Schönbrunn Palace":{"thumbnail":"https://upload.wikimedia.org/wikipedia/commons/thumb/4/41/Schloss_Sch%C3%B6nbrunn_Wien_2014_%28Zuschnitt_2%29.jpg/400px-Schloss_Sch%C3%B6nbrunn_Wien_2014_%28Zuschnitt_2%29.jpg","thumbnail__source":"https://upload.wikimedia.org/wikipedia/commons/thumb/4/41/Schloss_Sch%C3%B6nbrunn_Wien_2014_%28Zuschnitt_2%29.jpg/120px-Schloss_Sch%C3%B6nbrunn_Wien_2014_%28Zuschnitt_2%29.jpg","lat":48.184516,"lon":16.311865,"title":"Schönbrunn Palace","description":"building in Vienna, Austria"},"Tiergarten Schönbrunn":{"thumbnail":"https://upload.wikimedia.org/wikipedia/commons/thumb/a/a9/Panda_Vienna.jpg/400px-Panda_Vienna.jpg","thumbnail__source":"https://upload.wikimedia.org/wikipedia/commons/thumb/a/a9/Panda_Vienna.jpg/120px-Panda_Vienna.jpg","lat":48.18222222,"lon":16.3025,"title":"Tiergarten Schönbrunn","description":"zoo in Vienna"},"Mariazell Basilica":{"thumbnail":"https://upload.wikimedia.org/wikipedia/commons/thumb/7/70/Mariazell_-_Basilika1.JPG/400px-Mariazell_-_Basilika1.JPG","thumbnail__source":"https://upload.wikimedia.org/wikipedia/commons/thumb/7/70/Mariazell_-_Basilika1.JPG/120px-Mariazell_-_Basilika1.JPG","lat":47.7729,"lon":15.3184,"title":"Mariazell Basilica","description":"parish church"},"Mariazell":{"thumbnail":"https://upload.wikimedia.org/wikipedia/commons/thumb/7/70/Mariazell_-_Basilika1.JPG/400px-Mariazell_-_Basilika1.JPG","thumbnail__source":"https://upload.wikimedia.org/wikipedia/commons/thumb/7/70/Mariazell_-_Basilika1.JPG/120px-Mariazell_-_Basilika1.JPG","lat":47.77305556,"lon":15.31638889,"title":"Mariazell","description":"municipality in Austria"},"Schloss Esterházy":{"thumbnail":"https://upload.wikimedia.org/wikipedia/commons/thumb/2/27/Eisenstadt_-_Schloss_Esterhazy.JPG/400px-Eisenstadt_-_Schloss_Esterhazy.JPG","thumbnail__source":"https://upload.wikimedia.org/wikipedia/commons/thumb/2/27/Eisenstadt_-_Schloss_Esterhazy.JPG/120px-Eisenstadt_-_Schloss_Esterhazy.JPG","lat":47.84861111,"lon":16.52083333,"title":"Schloss Esterházy","description":"château in Eisenstadt, Austria"},"Tyrol (state)":{"thumbnail":"https://upload.wikimedia.org/wikipedia/commons/thumb/b/b0/Alois_Sch%C3%B6nn_Tiroler_Wallfahrer.jpg/320px-Alois_Sch%C3%B6nn_Tiroler_Wallfahrer.jpg","thumbnail__source":"File:Alois_Schönn_Tiroler_Wallfahrer.jpg","lat":47.26858889,"lon":11.39325556,"title":"Tyrol (state)","description":"federal state in western Austria"},"Neft Daşları":{"thumbnail":"https://upload.wikimedia.org/wikipedia/commons/thumb/f/f1/Oil_Rocks_estacades.jpg/400px-Oil_Rocks_estacades.jpg","thumbnail__source":"https://upload.wikimedia.org/wikipedia/commons/thumb/f/f1/Oil_Rocks_estacades.jpg/120px-Oil_Rocks_estacades.jpg","lat":40.23611111,"lon":50.85833333,"title":"Neft Daşları","description":"human settlement"},"Zow Tlang":{"thumbnail":"https://upload.wikimedia.org/wikipedia/commons/thumb/e/ec/Zow_Tlang.JPG/400px-Zow_Tlang.JPG","thumbnail__source":"https://upload.wikimedia.org/wikipedia/commons/thumb/e/ec/Zow_Tlang.JPG/120px-Zow_Tlang.JPG","lat":21.67327222,"lon":92.60444722,"title":"Zow Tlang","description":"mountain in Bangladesh"},"Padma River":{"thumbnail":"https://upload.wikimedia.org/wikipedia/commons/thumb/6/6e/Boat_Sailing_up_Padma_River_Bangladesh.jpg/400px-Boat_Sailing_up_Padma_River_Bangladesh.jpg","thumbnail__source":"https://upload.wikimedia.org/wikipedia/commons/thumb/6/6e/Boat_Sailing_up_Padma_River_Bangladesh.jpg/120px-Boat_Sailing_up_Padma_River_Bangladesh.jpg","lat":23.26666667,"lon":90.6,"title":"Padma River","description":"major river in Bangladesh in India"},"Bridgetown":{"thumbnail":"https://upload.wikimedia.org/wikipedia/commons/thumb/f/f9/Bridgetown%2C_Barbados..JPG/400px-Bridgetown%2C_Barbados..JPG","thumbnail__source":"https://upload.wikimedia.org/wikipedia/commons/thumb/f/f9/Bridgetown%2C_Barbados..JPG/120px-Bridgetown%2C_Barbados..JPG","lat":13.0975,"lon":-59.61666667,"title":"Bridgetown","description":"capital of Barbados"},"Brest Fortress":{"thumbnail":"https://upload.wikimedia.org/wikipedia/commons/thumb/7/78/BrestFortress7.JPG/400px-BrestFortress7.JPG","thumbnail__source":"https://upload.wikimedia.org/wikipedia/commons/thumb/7/78/BrestFortress7.JPG/120px-BrestFortress7.JPG","lat":52.082,"lon":23.658,"title":"Brest Fortress","description":"19th century Russian fortress"},"Struve Geodetic Arc":{"thumbnail":"https://upload.wikimedia.org/wikipedia/commons/thumb/c/c4/Hammerfest_Meridianstein.jpg/400px-Hammerfest_Meridianstein.jpg","thumbnail__source":"File:Hammerfest_Meridianstein.jpg","lat":59.05777778,"lon":26.33777778,"title":"Struve Geodetic Arc","description":"meridian arc from Hammerfest in Norway to the Black Sea"},"Mir Castle Complex":{"thumbnail":"https://upload.wikimedia.org/wikipedia/commons/thumb/d/d6/%D0%9A%D0%BE%D0%BC%D0%BF%D0%BB%D0%B5%D0%BA%D1%81_%D0%9C%D0%B8%D1%80%D1%81%D0%BA%D0%BE%D0%B3%D0%BE_%D0%B7%D0%B0%D0%BC%D0%BA%D0%B0.JPG/400px-%D0%9A%D0%BE%D0%BC%D0%BF%D0%BB%D0%B5%D0%BA%D1%81_%D0%9C%D0%B8%D1%80%D1%81%D0%BA%D0%BE%D0%B3%D0%BE_%D0%B7%D0%B0%D0%BC%D0%BA%D0%B0.JPG","thumbnail__source":"File:Комплекс_Мирского_замка.JPG","lat":53.45123889,"lon":26.473,"title":"Mir Castle Complex","description":"This late medieval castle is a UNESCO World Heritage site. The ticket into the castle and the chapel-crypt behind it can be bought at the entrance - 100 m away from the castle gate tower."},"Nesvizh Castle":{"thumbnail":"https://upload.wikimedia.org/wikipedia/commons/thumb/8/84/%D0%9D%D1%8F%D1%81%D0%B2%D1%96%D0%B6_%D1%96_%D0%9D%D1%8F%D1%81%D0%B2%D1%96%D0%B6%D1%81%D0%BA%D1%96_%D0%B7%D0%B0%D0%BC%D0%B0%D0%BA_12.jpg/400px-%D0%9D%D1%8F%D1%81%D0%B2%D1%96%D0%B6_%D1%96_%D0%9D%D1%8F%D1%81%D0%B2%D1%96%D0%B6%D1%81%D0%BA%D1%96_%D0%B7%D0%B0%D0%BC%D0%B0%D0%BA_12.jpg","thumbnail__source":"https://upload.wikimedia.org/wikipedia/commons/thumb/8/84/%D0%9D%D1%8F%D1%81%D0%B2%D1%96%D0%B6_%D1%96_%D0%9D%D1%8F%D1%81%D0%B2%D1%96%D0%B6%D1%81%D0%BA%D1%96_%D0%B7%D0%B0%D0%BC%D0%B0%D0%BA_12.jpg/120px-%D0%9D%D1%8F%D1%81%D0%B2%D1%96%D0%B6_%D1%96_%D0%9D%D1%8F%D1%81%D0%B2%D1%96%D0%B6%D1%81%D0%BA%D1%96_%D0%B7%D0%B0%D0%BC%D0%B0%D0%BA_12.jpg","lat":53.22287778,"lon":26.69173611,"title":"Nesvizh Castle"},"Białowieża Forest":{"thumbnail":"https://upload.wikimedia.org/wikipedia/commons/thumb/4/4b/Bialowieza_National_Park_in_Poland0029.JPG/400px-Bialowieza_National_Park_in_Poland0029.JPG","thumbnail__source":"https://upload.wikimedia.org/wikipedia/commons/thumb/4/4b/Bialowieza_National_Park_in_Poland0029.JPG/120px-Bialowieza_National_Park_in_Poland0029.JPG","lat":52.75222222,"lon":23.87916667,"title":"Białowieża Forest","description":"old forest in Poland and Belarus"},"Brest, Belarus":{"thumbnail":"https://upload.wikimedia.org/wikipedia/commons/thumb/0/0d/Brest_Montage_%282017%29.jpg/400px-Brest_Montage_%282017%29.jpg","thumbnail__source":"https://upload.wikimedia.org/wikipedia/commons/thumb/0/0d/Brest_Montage_%282017%29.jpg/86px-Brest_Montage_%282017%29.jpg","lat":52.13472222,"lon":23.65694444,"title":"Brest, Belarus","description":"city in Belarus"},"Ardennes":{"thumbnail":"https://upload.wikimedia.org/wikipedia/commons/thumb/f/f6/Frahan_JPG01.jpg/400px-Frahan_JPG01.jpg","thumbnail__source":"https://upload.wikimedia.org/wikipedia/commons/thumb/f/f6/Frahan_JPG01.jpg/120px-Frahan_JPG01.jpg","lat":50.25,"lon":5.66666667,"title":"Ardennes","description":"low mountain range in Belgium"},"Grand Place":{"thumbnail":"https://upload.wikimedia.org/wikipedia/commons/thumb/2/26/Grand-Place%2C_Brussels_-_panorama%2C_June_2018.jpg/400px-Grand-Place%2C_Brussels_-_panorama%2C_June_2018.jpg","thumbnail__source":"File:Grand-Place,_Brussels_-_panorama,_June_2018.jpg","lat":50.8467,"lon":4.3525,"title":"Grand Place","description":""},"Cathedral of St. Michael and St. Gudula":{"thumbnail":"https://upload.wikimedia.org/wikipedia/commons/thumb/2/2a/Saints-Michel-et-Gudule_Luc_Viatour.jpg/400px-Saints-Michel-et-Gudule_Luc_Viatour.jpg","thumbnail__source":"File:Saints-Michel-et-Gudule_Luc_Viatour.jpg","lat":50.84777778,"lon":4.36027778,"title":"Cathedral of St. Michael and St. Gudula","description":""},"Atomium":{"thumbnail":"https://upload.wikimedia.org/wikipedia/commons/thumb/1/11/Atomium_320_by_240_CCBY20_flickr_Mike_Cattell.jpg/400px-Atomium_320_by_240_CCBY20_flickr_Mike_Cattell.jpg","thumbnail__source":"File:Atomium_320_by_240_CCBY20_flickr_Mike_Cattell.jpg","lat":50.89472222,"lon":4.34111111,"title":"Atomium","description":"building in Brussels, Belgium"},"Manneken Pis":{"thumbnail":"https://upload.wikimedia.org/wikipedia/commons/thumb/6/64/Bruxelles_Manneken_Pis.jpg/400px-Bruxelles_Manneken_Pis.jpg","thumbnail__source":"https://upload.wikimedia.org/wikipedia/commons/thumb/6/64/Bruxelles_Manneken_Pis.jpg/79px-Bruxelles_Manneken_Pis.jpg","lat":50.84499,"lon":4.34998,"title":"Manneken Pis","description":"brass sculpture and fountain by Jérôme Duquesnoy the Elder"},"Walloon Brabant":{"thumbnail":"https://upload.wikimedia.org/wikipedia/commons/e/eb/Brabant-WallonGemeenten.png","thumbnail__source":"File:Brabant-WallonGemeenten.png","lat":50.66666667,"lon":4.58333333,"title":"Walloon Brabant","description":"province in Wallonia, Belgium"},"Villers Abbey":{"thumbnail":"https://upload.wikimedia.org/wikipedia/commons/thumb/b/bb/Villers-la-Ville_JPG00V_%281%29.jpg/400px-Villers-la-Ville_JPG00V_%281%29.jpg","thumbnail__source":"https://upload.wikimedia.org/wikipedia/commons/thumb/b/bb/Villers-la-Ville_JPG00V_%281%29.jpg/120px-Villers-la-Ville_JPG00V_%281%29.jpg","lat":50.59055556,"lon":4.52972222,"title":"Villers Abbey","description":"abbey"},"Han-sur-Lesse":{"thumbnail":"https://upload.wikimedia.org/wikipedia/commons/thumb/9/9e/Han-sur-Lesse_Riv1JPG.jpg/400px-Han-sur-Lesse_Riv1JPG.jpg","thumbnail__source":"https://upload.wikimedia.org/wikipedia/commons/thumb/9/9e/Han-sur-Lesse_Riv1JPG.jpg/120px-Han-sur-Lesse_Riv1JPG.jpg","lat":50.12611111,"lon":5.18777778,"title":"Han-sur-Lesse","description":"section of Rochefort, Belgium"},"Bouillon":{"thumbnail":"https://upload.wikimedia.org/wikipedia/commons/thumb/c/c4/A_Panoramic_View_%28Explore%29_%286693947035%29.jpg/400px-A_Panoramic_View_%28Explore%29_%286693947035%29.jpg","thumbnail__source":"https://upload.wikimedia.org/wikipedia/commons/thumb/c/c4/A_Panoramic_View_%28Explore%29_%286693947035%29.jpg/120px-A_Panoramic_View_%28Explore%29_%286693947035%29.jpg","lat":49.7955,"lon":5.068,"title":"Bouillon","description":"city in Luxembourg, Belgium"},"Binche":{"thumbnail":"https://upload.wikimedia.org/wikipedia/commons/thumb/b/bc/Binche_JPG01.jpg/400px-Binche_JPG01.jpg","thumbnail__source":"https://upload.wikimedia.org/wikipedia/commons/thumb/b/bc/Binche_JPG01.jpg/120px-Binche_JPG01.jpg","lat":50.4,"lon":4.16666667,"title":"Binche","description":"city in Hainaut, Belgium"},"Werchter":{"thumbnail":"https://upload.wikimedia.org/wikipedia/commons/thumb/3/31/PyramidM.JPG/320px-PyramidM.JPG","thumbnail__source":"File:PyramidM.JPG","lat":50.96666667,"lon":4.7,"title":"Werchter","description":"section of Rotselaar, Belgium"},"Dour":{"thumbnail":"https://upload.wikimedia.org/wikipedia/commons/thumb/d/d0/Dour_050817_%2810%29.JPG/400px-Dour_050817_%2810%29.JPG","thumbnail__source":"https://upload.wikimedia.org/wikipedia/commons/thumb/d/d0/Dour_050817_%2810%29.JPG/120px-Dour_050817_%2810%29.JPG","lat":50.4,"lon":3.78333333,"title":"Dour","description":"Walloon municipality in Hainaut, Belgium"},"Belize Barrier Reef":{"thumbnail":"https://upload.wikimedia.org/wikipedia/commons/thumb/a/a8/Satellite_image_of_Belize_in_March_31%2C_2002.jpg/400px-Satellite_image_of_Belize_in_March_31%2C_2002.jpg","thumbnail__source":"https://upload.wikimedia.org/wikipedia/commons/thumb/a/a8/Satellite_image_of_Belize_in_March_31%2C_2002.jpg/78px-Satellite_image_of_Belize_in_March_31%2C_2002.jpg","lat":17.31555556,"lon":-87.53444444,"title":"Belize Barrier Reef","description":"series of coral reefs straddling the coast of Belize"},"Savalou":{"thumbnail":"https://upload.wikimedia.org/wikipedia/commons/thumb/7/78/Savalu_Benin_Africa.jpg/400px-Savalu_Benin_Africa.jpg","thumbnail__source":"https://upload.wikimedia.org/wikipedia/commons/thumb/7/78/Savalu_Benin_Africa.jpg/120px-Savalu_Benin_Africa.jpg","lat":7.93333333,"lon":1.96666667,"title":"Savalou","description":"commune of Benin"},"Ouidah":{"thumbnail":"https://upload.wikimedia.org/wikipedia/commons/thumb/7/71/Basilica_of_Ouidah.jpg/400px-Basilica_of_Ouidah.jpg","thumbnail__source":"https://upload.wikimedia.org/wikipedia/commons/thumb/7/71/Basilica_of_Ouidah.jpg/96px-Basilica_of_Ouidah.jpg","lat":6.36666667,"lon":2.08333333,"title":"Ouidah","description":"city in Benin"},"Ganvie":{"thumbnail":"https://upload.wikimedia.org/wikipedia/commons/thumb/3/3c/20131005-DSC_2915_%2810282059623%29_%282%29.jpg/400px-20131005-DSC_2915_%2810282059623%29_%282%29.jpg","thumbnail__source":"https://upload.wikimedia.org/wikipedia/commons/thumb/3/3c/20131005-DSC_2915_%2810282059623%29_%282%29.jpg/120px-20131005-DSC_2915_%2810282059623%29_%282%29.jpg","lat":6.46666667,"lon":2.41666667,"title":"Ganvie","description":"Ganvié"},"Grand-Popo":{"thumbnail":"https://upload.wikimedia.org/wikipedia/commons/thumb/a/ab/Benin4.jpg/400px-Benin4.jpg","thumbnail__source":"https://upload.wikimedia.org/wikipedia/commons/thumb/a/ab/Benin4.jpg/120px-Benin4.jpg","lat":6.28333333,"lon":1.83333333,"title":"Grand-Popo","description":"commune of Benin"},"Djougou":{"thumbnail":"https://upload.wikimedia.org/wikipedia/commons/thumb/6/67/Stra%C3%9Fenbild_djougou.JPG/400px-Stra%C3%9Fenbild_djougou.JPG","thumbnail__source":"https://upload.wikimedia.org/wikipedia/commons/thumb/6/67/Stra%C3%9Fenbild_djougou.JPG/120px-Stra%C3%9Fenbild_djougou.JPG","lat":9.7,"lon":1.66666667,"title":"Djougou","description":"city in north west Benin"},"Paro, Bhutan":{"thumbnail":"https://upload.wikimedia.org/wikipedia/commons/thumb/6/68/Paro%2C_Paro%2C_Bhutan_%288026008882%29.jpg/400px-Paro%2C_Paro%2C_Bhutan_%288026008882%29.jpg","thumbnail__source":"https://upload.wikimedia.org/wikipedia/commons/thumb/6/68/Paro%2C_Paro%2C_Bhutan_%288026008882%29.jpg/80px-Paro%2C_Paro%2C_Bhutan_%288026008882%29.jpg","lat":27.43333333,"lon":89.41666667,"title":"Paro, Bhutan","description":"city"},"Jakar Dzong":{"thumbnail":"https://upload.wikimedia.org/wikipedia/commons/thumb/a/a7/JakarDzong.jpg/400px-JakarDzong.jpg","thumbnail__source":"File:JakarDzong.jpg","lat":27.54888889,"lon":90.74361111,"title":"Jakar Dzong","description":"place in Bumthang District, Bhutan"},"Singye Dzong":{"thumbnail":"https://upload.wikimedia.org/wikipedia/commons/thumb/e/e7/Bhutan_location_map.svg/400px-Bhutan_location_map.svg.png","thumbnail__source":"https://upload.wikimedia.org/wikipedia/commons/thumb/e/e7/Bhutan_location_map.svg/120px-Bhutan_location_map.svg.png","lat":27.91666667,"lon":91.35,"title":"Singye Dzong","description":"place in Lhuentse District, Bhutan"},"Santa Cruz de la Sierra":{"thumbnail":"https://upload.wikimedia.org/wikipedia/commons/thumb/3/3a/Collage_Santa_Cruz.png/400px-Collage_Santa_Cruz.png","thumbnail__source":"https://upload.wikimedia.org/wikipedia/commons/thumb/3/3a/Collage_Santa_Cruz.png/69px-Collage_Santa_Cruz.png","lat":-17.8,"lon":-63.18333333,"title":"Santa Cruz de la Sierra","description":"capital of the Santa Cruz department in eastern Bolivia"},"Yungas Road":{"thumbnail":"https://upload.wikimedia.org/wikipedia/commons/thumb/f/f2/Camino_a_los_Yungas_%28detall%29.png/400px-Camino_a_los_Yungas_%28detall%29.png","thumbnail__source":"https://upload.wikimedia.org/wikipedia/commons/thumb/f/f2/Camino_a_los_Yungas_%28detall%29.png/120px-Camino_a_los_Yungas_%28detall%29.png","lat":-16.33590556,"lon":-68.04049444,"title":"Yungas Road","description":"road in Bolivia"},"Rurrenabaque":{"thumbnail":"https://upload.wikimedia.org/wikipedia/commons/thumb/1/18/Rurrenabaque_ciudad.jpg/400px-Rurrenabaque_ciudad.jpg","thumbnail__source":"https://upload.wikimedia.org/wikipedia/commons/thumb/1/18/Rurrenabaque_ciudad.jpg/120px-Rurrenabaque_ciudad.jpg","lat":-14.44222222,"lon":-67.52833333,"title":"Rurrenabaque","description":"town in Bolivia"},"Torotoro National Park":{"thumbnail":"https://upload.wikimedia.org/wikipedia/commons/thumb/f/fb/Canyon_of_Torotoro.jpg/400px-Canyon_of_Torotoro.jpg","thumbnail__source":"https://upload.wikimedia.org/wikipedia/commons/thumb/f/fb/Canyon_of_Torotoro.jpg/120px-Canyon_of_Torotoro.jpg","lat":-18.1,"lon":-65.76666667,"title":"Torotoro National Park","description":"national park"},"Coroico":{"thumbnail":"https://upload.wikimedia.org/wikipedia/commons/thumb/6/61/Coroico_town.jpg/400px-Coroico_town.jpg","thumbnail__source":"https://upload.wikimedia.org/wikipedia/commons/thumb/6/61/Coroico_town.jpg/120px-Coroico_town.jpg","lat":-16.18333333,"lon":-67.73333333,"title":"Coroico","description":"town in Nor Yungas Province, in the La Paz Department of western Bolivia"},"Chulumani":{"thumbnail":"https://upload.wikimedia.org/wikipedia/commons/thumb/d/d6/Plaza_de_Chuluani.jpg/400px-Plaza_de_Chuluani.jpg","thumbnail__source":"https://upload.wikimedia.org/wikipedia/commons/thumb/d/d6/Plaza_de_Chuluani.jpg/120px-Plaza_de_Chuluani.jpg","lat":-16.68333333,"lon":-67.86666667,"title":"Chulumani","description":"place in La Paz Department, Bolivia"},"Villa Tunari":{"thumbnail":"https://upload.wikimedia.org/wikipedia/commons/thumb/8/81/Villatunaripanorama.jpg/400px-Villatunaripanorama.jpg","thumbnail__source":"https://upload.wikimedia.org/wikipedia/commons/thumb/8/81/Villatunaripanorama.jpg/120px-Villatunaripanorama.jpg","lat":-16.97472222,"lon":-65.42027778,"title":"Villa Tunari","description":"place in Cochabamba Department, Bolivia"},"Konjic":{"thumbnail":"https://upload.wikimedia.org/wikipedia/commons/thumb/7/7f/Konjic_%28collage%29.jpg/400px-Konjic_%28collage%29.jpg","thumbnail__source":"File:Konjic_(collage).jpg","lat":43.65441667,"lon":17.96077778,"title":"Konjic","description":"town in Bosnia and Herzegovina"},"Baščaršija":{"thumbnail":"https://upload.wikimedia.org/wikipedia/commons/thumb/3/36/Bascarsija_2016.jpg/400px-Bascarsija_2016.jpg","thumbnail__source":"https://upload.wikimedia.org/wikipedia/commons/thumb/3/36/Bascarsija_2016.jpg/120px-Bascarsija_2016.jpg","lat":43.859,"lon":18.43,"title":"Baščaršija","description":"old market part of Sarajevo"},"Ribnik, Bosnia and Herzegovina":{"thumbnail":"https://upload.wikimedia.org/wikipedia/commons/thumb/c/c6/Na_putu_prema_Ribniku_-_panoramio.jpg/400px-Na_putu_prema_Ribniku_-_panoramio.jpg","thumbnail__source":"https://upload.wikimedia.org/wikipedia/commons/thumb/c/c6/Na_putu_prema_Ribniku_-_panoramio.jpg/120px-Na_putu_prema_Ribniku_-_panoramio.jpg","lat":44.45,"lon":16.81666667,"title":"Ribnik, Bosnia and Herzegovina","description":"municipality of Republika Srpska"},"Stari Most":{"thumbnail":"https://upload.wikimedia.org/wikipedia/commons/thumb/a/a2/Stari_Most22.jpg/400px-Stari_Most22.jpg","thumbnail__source":"https://upload.wikimedia.org/wikipedia/commons/thumb/a/a2/Stari_Most22.jpg/120px-Stari_Most22.jpg","lat":43.3371,"lon":17.81485,"title":"Stari Most","description":"bridge in Mostar over the river Neretva"},"Višegrad":{"thumbnail":"https://upload.wikimedia.org/wikipedia/commons/thumb/a/ab/Vi%C5%A1egrad.jpg/400px-Vi%C5%A1egrad.jpg","thumbnail__source":"https://upload.wikimedia.org/wikipedia/commons/thumb/a/ab/Vi%C5%A1egrad.jpg/102px-Vi%C5%A1egrad.jpg","lat":43.78277778,"lon":19.29111111,"title":"Višegrad","description":"town in Bosnia and Herzegovina"},"Mehmed Paša Sokolović Bridge":{"thumbnail":"https://upload.wikimedia.org/wikipedia/commons/thumb/5/55/Visegrad_bridge_by_Klackalica.jpg/400px-Visegrad_bridge_by_Klackalica.jpg","thumbnail__source":"https://upload.wikimedia.org/wikipedia/commons/thumb/5/55/Visegrad_bridge_by_Klackalica.jpg/120px-Visegrad_bridge_by_Klackalica.jpg","lat":43.78222222,"lon":19.28777778,"title":"Mehmed Paša Sokolović Bridge","description":"historic bridge in Višegrad, Bosnia and Herzegovina"},"Vrelo Bosne":{"thumbnail":"https://upload.wikimedia.org/wikipedia/commons/thumb/8/86/Vrelo_Bosne%2C_Sarajevo.jpg/400px-Vrelo_Bosne%2C_Sarajevo.jpg","thumbnail__source":"File:Vrelo_Bosne,_Sarajevo.jpg","lat":43.818867,"lon":18.269447,"title":"Vrelo Bosne","description":"The beginning of the river Bosna, where the pure and ice cold water surges out of the mountains. Here you can walk in large, well-kept park, picnic, and spend the whole day without getting bored. May 1 festival is held here."},"Una National Park":{"thumbnail":"https://upload.wikimedia.org/wikipedia/commons/thumb/d/da/Waterfall_on_Una_river_in_Martin_Brod.jpg/400px-Waterfall_on_Una_river_in_Martin_Brod.jpg","thumbnail__source":"https://upload.wikimedia.org/wikipedia/commons/thumb/d/da/Waterfall_on_Una_river_in_Martin_Brod.jpg/120px-Waterfall_on_Una_river_in_Martin_Brod.jpg","lat":44.49526667,"lon":16.13498889,"title":"Una National Park","description":"national park in Bosnia and Herzegovina"},"Sutjeska National Park":{"thumbnail":"https://upload.wikimedia.org/wikipedia/commons/thumb/0/08/Sutjeska_Mountains.jpg/400px-Sutjeska_Mountains.jpg","thumbnail__source":"https://upload.wikimedia.org/wikipedia/commons/thumb/0/08/Sutjeska_Mountains.jpg/120px-Sutjeska_Mountains.jpg","lat":43.33333333,"lon":18.68333333,"title":"Sutjeska National Park","description":"national park"},"Blagaj":{"thumbnail":"https://upload.wikimedia.org/wikipedia/commons/thumb/d/d0/Blagaj_Ceilings.jpg/400px-Blagaj_Ceilings.jpg","thumbnail__source":"https://upload.wikimedia.org/wikipedia/commons/thumb/d/d0/Blagaj_Ceilings.jpg/120px-Blagaj_Ceilings.jpg","lat":43.25722222,"lon":17.88638889,"title":"Blagaj","description":"human settlement in Bosnia and Herzegovina"},"Mrkonjić Grad":{"thumbnail":"https://upload.wikimedia.org/wikipedia/commons/thumb/0/0d/Mrkonji%C4%87_Grad.jpg/400px-Mrkonji%C4%87_Grad.jpg","thumbnail__source":"https://upload.wikimedia.org/wikipedia/commons/thumb/0/0d/Mrkonji%C4%87_Grad.jpg/120px-Mrkonji%C4%87_Grad.jpg","lat":44.41666667,"lon":17.08333333,"title":"Mrkonjić Grad","description":"town"},"Radimlja":{"thumbnail":"https://upload.wikimedia.org/wikipedia/commons/thumb/5/51/BiH%2C_Radimlja_necropolis_2.jpg/400px-BiH%2C_Radimlja_necropolis_2.jpg","thumbnail__source":"https://upload.wikimedia.org/wikipedia/commons/thumb/5/51/BiH%2C_Radimlja_necropolis_2.jpg/120px-BiH%2C_Radimlja_necropolis_2.jpg","lat":43.09222222,"lon":17.92416667,"title":"Radimlja","description":"stećak necropolis near Stolac, Bosnia and Herzegovina"},"Foča":{"thumbnail":"https://upload.wikimedia.org/wikipedia/commons/thumb/d/d2/Fo%C4%8Da_%E2%80%93_Panorama.jpg/400px-Fo%C4%8Da_%E2%80%93_Panorama.jpg","thumbnail__source":"https://upload.wikimedia.org/wikipedia/commons/thumb/d/d2/Fo%C4%8Da_%E2%80%93_Panorama.jpg/120px-Fo%C4%8Da_%E2%80%93_Panorama.jpg","lat":43.50638889,"lon":18.77472222,"title":"Foča","description":"town in Bosnia and Herzegovina"},"Travnik":{"thumbnail":"https://upload.wikimedia.org/wikipedia/commons/thumb/2/20/Travnik_%28collage_image%29.jpg/400px-Travnik_%28collage_image%29.jpg","thumbnail__source":"https://upload.wikimedia.org/wikipedia/commons/thumb/2/20/Travnik_%28collage_image%29.jpg/101px-Travnik_%28collage_image%29.jpg","lat":44.22638889,"lon":17.65972222,"title":"Travnik","description":"city in Bosnia and Herzegovina"},"Vlasenica":{"thumbnail":"https://upload.wikimedia.org/wikipedia/commons/thumb/9/9a/Vlasenica_Panorama_3.JPG/400px-Vlasenica_Panorama_3.JPG","thumbnail__source":"https://upload.wikimedia.org/wikipedia/commons/thumb/9/9a/Vlasenica_Panorama_3.JPG/120px-Vlasenica_Panorama_3.JPG","lat":44.18333333,"lon":18.93333333,"title":"Vlasenica","description":"city"},"Kupres":{"thumbnail":"https://upload.wikimedia.org/wikipedia/commons/thumb/8/84/Kupres01770.JPG/400px-Kupres01770.JPG","thumbnail__source":"https://upload.wikimedia.org/wikipedia/commons/thumb/8/84/Kupres01770.JPG/120px-Kupres01770.JPG","lat":43.99055556,"lon":17.27944444,"title":"Kupres","description":"in Canton 10, Federation of Bosnia and Herzegovina"},"Glavatičevo":{"thumbnail":"https://upload.wikimedia.org/wikipedia/commons/thumb/d/d1/Glavati%C4%8Devo.jpg/400px-Glavati%C4%8Devo.jpg","thumbnail__source":"https://upload.wikimedia.org/wikipedia/commons/thumb/d/d1/Glavati%C4%8Devo.jpg/120px-Glavati%C4%8Devo.jpg","lat":43.50358611,"lon":18.10479167,"title":"Glavatičevo","description":"village in Bosnia and Herzegovina"},"Tjentište":{"thumbnail":"https://upload.wikimedia.org/wikipedia/commons/thumb/5/58/Memorial_for_the_Battle_of_the_Sutjeska_3.jpg/320px-Memorial_for_the_Battle_of_the_Sutjeska_3.jpg","thumbnail__source":"File:Memorial_for_the_Battle_of_the_Sutjeska_3.jpg","lat":43.34833333,"lon":18.69055556,"title":"Tjentište","description":"village in Bosnia and Herzegovina"},"Goražde":{"thumbnail":"https://upload.wikimedia.org/wikipedia/commons/thumb/6/69/Gora%C5%BEde_%28collage%29.jpg/400px-Gora%C5%BEde_%28collage%29.jpg","thumbnail__source":"https://upload.wikimedia.org/wikipedia/commons/thumb/6/69/Gora%C5%BEde_%28collage%29.jpg/108px-Gora%C5%BEde_%28collage%29.jpg","lat":43.66666667,"lon":18.98333333,"title":"Goražde","description":"city in Bosnia and Herzegovina"},"Bosanska Krupa":{"thumbnail":"https://upload.wikimedia.org/wikipedia/commons/thumb/7/75/Bosanska_Krupa_%282015%29.jpg/400px-Bosanska_Krupa_%282015%29.jpg","thumbnail__source":"https://upload.wikimedia.org/wikipedia/commons/thumb/7/75/Bosanska_Krupa_%282015%29.jpg/90px-Bosanska_Krupa_%282015%29.jpg","lat":44.88333333,"lon":16.15,"title":"Bosanska Krupa","description":"place in the Federation of Bosnia and Herzegovina"},"Martin Brod":{"thumbnail":"https://upload.wikimedia.org/wikipedia/commons/thumb/7/7e/Martin_Brod_View_1.JPG/400px-Martin_Brod_View_1.JPG","thumbnail__source":"https://upload.wikimedia.org/wikipedia/commons/thumb/7/7e/Martin_Brod_View_1.JPG/120px-Martin_Brod_View_1.JPG","lat":44.48333333,"lon":16.13333333,"title":"Martin Brod","description":"human settlement in Bosnia and Herzegovina"},"Drvar":{"thumbnail":"https://upload.wikimedia.org/wikipedia/commons/thumb/1/10/Drvar_Total_View.jpg/400px-Drvar_Total_View.jpg","thumbnail__source":"https://upload.wikimedia.org/wikipedia/commons/thumb/1/10/Drvar_Total_View.jpg/120px-Drvar_Total_View.jpg","lat":44.36666667,"lon":16.38333333,"title":"Drvar","description":"place in Bosnia and Herzegovina"},"Sanica":{"lat":44.61931,"lon":16.65596,"title":"Sanica","description":"human settlement in Bosnia and Herzegovina"},"Sanski Most":{"thumbnail":"https://upload.wikimedia.org/wikipedia/commons/thumb/b/b3/Sanski_Most2.JPG/400px-Sanski_Most2.JPG","thumbnail__source":"https://upload.wikimedia.org/wikipedia/commons/thumb/b/b3/Sanski_Most2.JPG/120px-Sanski_Most2.JPG","lat":44.76666667,"lon":16.66666667,"title":"Sanski Most","description":"city in Bosnia and Herzegovina"},"Šipovo":{"thumbnail":"https://upload.wikimedia.org/wikipedia/commons/thumb/2/21/SIPOVO3.jpg/400px-SIPOVO3.jpg","thumbnail__source":"https://upload.wikimedia.org/wikipedia/commons/thumb/2/21/SIPOVO3.jpg/120px-SIPOVO3.jpg","lat":44.46666667,"lon":17.13333333,"title":"Šipovo","description":"human settlement"},"Livno":{"thumbnail":"https://upload.wikimedia.org/wikipedia/commons/thumb/4/44/Panorama_Livna-0174.jpg/400px-Panorama_Livna-0174.jpg","thumbnail__source":"https://upload.wikimedia.org/wikipedia/commons/thumb/4/44/Panorama_Livna-0174.jpg/120px-Panorama_Livna-0174.jpg","lat":43.82527778,"lon":17.00583333,"title":"Livno","description":"city in Bosnia and Herzegovina"},"Tsodilo":{"thumbnail":"https://upload.wikimedia.org/wikipedia/commons/thumb/1/17/Tsodilo_rock_paintings_1.jpg/400px-Tsodilo_rock_paintings_1.jpg","thumbnail__source":"File:Tsodilo_rock_paintings_1.jpg","lat":-18.75,"lon":21.73333333,"title":"Tsodilo","description":"archaeological site"},"Mokolodi Nature Reserve":{"lat":-24.743294,"lon":25.798903,"title":"Mokolodi Nature Reserve"},"Xai-Xai":{"thumbnail":"https://upload.wikimedia.org/wikipedia/commons/thumb/0/05/Xai-Xai_street_scene.jpg/400px-Xai-Xai_street_scene.jpg","thumbnail__source":"https://upload.wikimedia.org/wikipedia/commons/thumb/0/05/Xai-Xai_street_scene.jpg/120px-Xai-Xai_street_scene.jpg","lat":-25.05,"lon":33.65,"title":"Xai-Xai","description":"city"},"João Pessoa, Paraíba":{"thumbnail":"https://upload.wikimedia.org/wikipedia/commons/thumb/3/3a/Montagem_Jo%C3%A3o_Pessoa.jpg/400px-Montagem_Jo%C3%A3o_Pessoa.jpg","thumbnail__source":"https://upload.wikimedia.org/wikipedia/commons/thumb/3/3a/Montagem_Jo%C3%A3o_Pessoa.jpg/72px-Montagem_Jo%C3%A3o_Pessoa.jpg","lat":-7.08333333,"lon":-34.83333333,"title":"João Pessoa, Paraíba","description":"municipality of Paraiba, state capital"},"Atlantic Forest":{"thumbnail":"https://upload.wikimedia.org/wikipedia/commons/thumb/8/85/Ba%C3%ADa_de_Antonina_vista_da_Serra_do_Mar2.JPG/400px-Ba%C3%ADa_de_Antonina_vista_da_Serra_do_Mar2.JPG","thumbnail__source":"https://upload.wikimedia.org/wikipedia/commons/thumb/8/85/Ba%C3%ADa_de_Antonina_vista_da_Serra_do_Mar2.JPG/120px-Ba%C3%ADa_de_Antonina_vista_da_Serra_do_Mar2.JPG","lat":-16.5,"lon":-39.25,"title":"Atlantic Forest","description":"biome in Brazil"},"Rio Grande do Norte":{"thumbnail":"https://upload.wikimedia.org/wikipedia/commons/thumb/0/0b/Natal-Coluna-Capitolina.jpg/320px-Natal-Coluna-Capitolina.jpg","thumbnail__source":"File:Natal-Coluna-Capitolina.jpg","lat":-5.74,"lon":-36.55,"title":"Rio Grande do Norte","description":"federated state of Brazil"},"Mato Grosso do Sul":{"thumbnail":"https://upload.wikimedia.org/wikipedia/commons/7/7b/Bras%C3%A3o_de_MS.gif","thumbnail__source":"File:Brasão_de_MS.gif","lat":-20.44277778,"lon":-54.64583333,"title":"Mato Grosso do Sul","description":"federated state of Brazil"},"Mato Grosso":{"thumbnail":"https://upload.wikimedia.org/wikipedia/commons/thumb/0/04/Bras%C3%A3o_de_Mato_Grosso.png/320px-Bras%C3%A3o_de_Mato_Grosso.png","thumbnail__source":"File:Brasão_de_Mato_Grosso.png","lat":-15.56666667,"lon":-56.06666667,"title":"Mato Grosso","description":"federated state of Brazil"},"Cachoeira da Fumaça":{"thumbnail":"https://upload.wikimedia.org/wikipedia/commons/thumb/e/e4/Cachoeira_da_fuma%C3%A7a_2.jpg/400px-Cachoeira_da_fuma%C3%A7a_2.jpg","thumbnail__source":"File:Cachoeira_da_fumaça_2.jpg","lat":-12.60277778,"lon":-41.44777778,"title":"Cachoeira da Fumaça"},"Bahia":{"thumbnail":"https://upload.wikimedia.org/wikipedia/commons/thumb/e/e4/Cachoeira_da_fuma%C3%A7a_2.jpg/320px-Cachoeira_da_fuma%C3%A7a_2.jpg","thumbnail__source":"File:Cachoeira_da_fumaça_2.jpg","lat":-12,"lon":-41,"title":"Bahia","description":"federated state of Brazil"},"Caracol Falls":{"thumbnail":"https://upload.wikimedia.org/wikipedia/commons/thumb/f/f9/Caracol_Falls.jpg/400px-Caracol_Falls.jpg","thumbnail__source":"https://upload.wikimedia.org/wikipedia/commons/thumb/f/f9/Caracol_Falls.jpg/120px-Caracol_Falls.jpg","lat":-29.3112,"lon":-50.8544,"title":"Caracol Falls"},"Goiás":{"thumbnail":"https://upload.wikimedia.org/wikipedia/commons/thumb/0/0b/Vale_do.jpg/320px-Vale_do.jpg","thumbnail__source":"File:Vale_do.jpg","lat":-15.93333333,"lon":-50.13333333,"title":"Goiás","description":"federated state of Brazil"},"Sete Lagoas":{"thumbnail":"https://upload.wikimedia.org/wikipedia/commons/thumb/3/37/Sete_lagoas_lagoa_paulino-01.JPG/400px-Sete_lagoas_lagoa_paulino-01.JPG","thumbnail__source":"https://upload.wikimedia.org/wikipedia/commons/thumb/3/37/Sete_lagoas_lagoa_paulino-01.JPG/120px-Sete_lagoas_lagoa_paulino-01.JPG","lat":-19.46583333,"lon":-44.24694444,"title":"Sete Lagoas","description":"municipality of Brazil"},"Minas Gerais":{"thumbnail":"https://upload.wikimedia.org/wikipedia/commons/thumb/c/ce/Rugendas_-_Mattosinho_pres_Sao_Joao_Del_Rey.jpg/320px-Rugendas_-_Mattosinho_pres_Sao_Joao_Del_Rey.jpg","thumbnail__source":"File:Rugendas_-_Mattosinho_pres_Sao_Joao_Del_Rey.jpg","lat":-19.81666667,"lon":-43.95,"title":"Minas Gerais","description":"federated state of Brazil"},"Ouro Preto":{"thumbnail":"https://upload.wikimedia.org/wikipedia/commons/thumb/4/4d/-i---i-_%286288971321%29.jpg/400px--i---i-_%286288971321%29.jpg","thumbnail__source":"https://upload.wikimedia.org/wikipedia/commons/thumb/4/4d/-i---i-_%286288971321%29.jpg/120px--i---i-_%286288971321%29.jpg","lat":-20.38527778,"lon":-43.50361111,"title":"Ouro Preto","description":"Brazilian municipality"},"Petrópolis":{"thumbnail":"https://upload.wikimedia.org/wikipedia/commons/thumb/4/4c/Montagem_Petr%C3%B3polis.jpg/400px-Montagem_Petr%C3%B3polis.jpg","thumbnail__source":"https://upload.wikimedia.org/wikipedia/commons/thumb/4/4c/Montagem_Petr%C3%B3polis.jpg/89px-Montagem_Petr%C3%B3polis.jpg","lat":-22.505,"lon":-43.17888889,"title":"Petrópolis","description":"city in the state of Rio de Janeiro, Brazil"},"Paraty":{"thumbnail":"https://upload.wikimedia.org/wikipedia/commons/thumb/b/b9/Paraty.JPG/400px-Paraty.JPG","thumbnail__source":"https://upload.wikimedia.org/wikipedia/commons/thumb/b/b9/Paraty.JPG/120px-Paraty.JPG","lat":-23.21944444,"lon":-44.71472222,"title":"Paraty","description":"municipality of Brazil"},"Goiânia":{"thumbnail":"https://upload.wikimedia.org/wikipedia/commons/thumb/a/a4/Goi%C3%A2nia_Collage.png/400px-Goi%C3%A2nia_Collage.png","thumbnail__source":"https://upload.wikimedia.org/wikipedia/commons/thumb/a/a4/Goi%C3%A2nia_Collage.png/90px-Goi%C3%A2nia_Collage.png","lat":-16.66666667,"lon":-49.25,"title":"Goiânia","description":"capital city of the state of Goiás, Brazil"},"Belo Horizonte":{"thumbnail":"https://upload.wikimedia.org/wikipedia/commons/thumb/8/8f/Belo_Horizonte_Collage.png/400px-Belo_Horizonte_Collage.png","thumbnail__source":"https://upload.wikimedia.org/wikipedia/commons/thumb/8/8f/Belo_Horizonte_Collage.png/65px-Belo_Horizonte_Collage.png","lat":-19.91666667,"lon":-43.93333333,"title":"Belo Horizonte","description":"capital city of the state of Minas Gerais, Brazil"},"Niterói":{"thumbnail":"https://upload.wikimedia.org/wikipedia/commons/thumb/d/d1/Niter%C3%B3i_bay_and_contemporary_musem.jpg/400px-Niter%C3%B3i_bay_and_contemporary_musem.jpg","thumbnail__source":"https://upload.wikimedia.org/wikipedia/commons/thumb/d/d1/Niter%C3%B3i_bay_and_contemporary_musem.jpg/120px-Niter%C3%B3i_bay_and_contemporary_musem.jpg","lat":-22.88333333,"lon":-43.10361111,"title":"Niterói","description":"municipality in the state of Rio de Janeiro, Brazil"},"Londrina":{"thumbnail":"https://upload.wikimedia.org/wikipedia/commons/thumb/3/38/Vista_da_Uel.jpg/400px-Vista_da_Uel.jpg","thumbnail__source":"https://upload.wikimedia.org/wikipedia/commons/thumb/3/38/Vista_da_Uel.jpg/120px-Vista_da_Uel.jpg","lat":-23.31,"lon":-51.16277778,"title":"Londrina","description":"municipality in the state of Paraná, Brazil"},"Florianópolis":{"thumbnail":"https://upload.wikimedia.org/wikipedia/commons/thumb/9/96/Florian%C3%B3polis_Collage.png/400px-Florian%C3%B3polis_Collage.png","thumbnail__source":"https://upload.wikimedia.org/wikipedia/commons/thumb/9/96/Florian%C3%B3polis_Collage.png/94px-Florian%C3%B3polis_Collage.png","lat":-27.61222222,"lon":-48.48527778,"title":"Florianópolis","description":"city in Santa Catarina, Brazil"},"Olinda":{"thumbnail":"https://upload.wikimedia.org/wikipedia/commons/thumb/b/be/Montagem_Olinda.jpg/400px-Montagem_Olinda.jpg","thumbnail__source":"https://upload.wikimedia.org/wikipedia/commons/thumb/b/be/Montagem_Olinda.jpg/57px-Montagem_Olinda.jpg","lat":-8,"lon":-34.88333333,"title":"Olinda","description":"municipality in Brazil"},"Porto de Galinhas":{"thumbnail":"https://upload.wikimedia.org/wikipedia/commons/thumb/e/e0/Portodegalinhas1.jpg/400px-Portodegalinhas1.jpg","thumbnail__source":"https://upload.wikimedia.org/wikipedia/commons/thumb/e/e0/Portodegalinhas1.jpg/120px-Portodegalinhas1.jpg","lat":-8.50111,"lon":-35,"title":"Porto de Galinhas"},"Morro de São Paulo":{"thumbnail":"https://upload.wikimedia.org/wikipedia/commons/thumb/9/94/FarolMorroSaoPaulo.jpg/320px-FarolMorroSaoPaulo.jpg","thumbnail__source":"File:FarolMorroSaoPaulo.jpg","lat":-13.38166667,"lon":-38.91388889,"title":"Morro de São Paulo","description":"human settlement in Brazil"},"Guarapari":{"thumbnail":"https://upload.wikimedia.org/wikipedia/commons/thumb/c/cf/Guarapari_skyline.jpg/400px-Guarapari_skyline.jpg","thumbnail__source":"https://upload.wikimedia.org/wikipedia/commons/thumb/c/cf/Guarapari_skyline.jpg/120px-Guarapari_skyline.jpg","lat":-20.65,"lon":-40.5,"title":"Guarapari","description":"Municipality of Brazil"},"Ubatuba":{"thumbnail":"https://upload.wikimedia.org/wikipedia/commons/thumb/d/df/Ubatuba_031.jpg/400px-Ubatuba_031.jpg","thumbnail__source":"https://upload.wikimedia.org/wikipedia/commons/thumb/d/df/Ubatuba_031.jpg/120px-Ubatuba_031.jpg","lat":-23.43944444,"lon":-45.07,"title":"Ubatuba","description":"Brazilian city, located on the southeast coast, in the state of São Paulo"},"Balneário Camboriú":{"thumbnail":"https://upload.wikimedia.org/wikipedia/commons/thumb/4/44/Vista_parcial_de_Balne%C3%A1rio_Cambori%C3%BA_SC_a_partir_do_Parque_Unipraias.JPG/400px-Vista_parcial_de_Balne%C3%A1rio_Cambori%C3%BA_SC_a_partir_do_Parque_Unipraias.JPG","thumbnail__source":"https://upload.wikimedia.org/wikipedia/commons/thumb/4/44/Vista_parcial_de_Balne%C3%A1rio_Cambori%C3%BA_SC_a_partir_do_Parque_Unipraias.JPG/120px-Vista_parcial_de_Balne%C3%A1rio_Cambori%C3%BA_SC_a_partir_do_Parque_Unipraias.JPG","lat":-26.99527778,"lon":-48.63555556,"title":"Balneário Camboriú","description":"beach resort in the Brazilian southern state of Santa Catarina"},"Santa Catarina Island":{"thumbnail":"https://upload.wikimedia.org/wikipedia/commons/thumb/b/b2/SantaCatarinaIsland_Landsat_2000.jpeg/320px-SantaCatarinaIsland_Landsat_2000.jpeg","thumbnail__source":"File:SantaCatarinaIsland_Landsat_2000.jpeg","lat":-27.6,"lon":-48.5,"title":"Santa Catarina Island","description":"island"},"Mineirão":{"thumbnail":"https://upload.wikimedia.org/wikipedia/commons/thumb/3/3e/Mineir%C3%A3o_%28Top_View%29.jpg/400px-Mineir%C3%A3o_%28Top_View%29.jpg","thumbnail__source":"https://upload.wikimedia.org/wikipedia/commons/thumb/3/3e/Mineir%C3%A3o_%28Top_View%29.jpg/120px-Mineir%C3%A3o_%28Top_View%29.jpg","lat":-19.86583333,"lon":-43.97083333,"title":"Mineirão","description":"football stadium in the state of Minas Gerais, Brazil"},"Botafogo":{"thumbnail":"https://upload.wikimedia.org/wikipedia/commons/thumb/5/5b/Nicola_Antonio_Facchinetti_-_Enseada_do_Botafogo.JPG/320px-Nicola_Antonio_Facchinetti_-_Enseada_do_Botafogo.JPG","thumbnail__source":"File:Nicola_Antonio_Facchinetti_-_Enseada_do_Botafogo.JPG","lat":-22.95,"lon":-43.18416667,"title":"Botafogo","description":"neighborhood in municipality of Rio de Janeiro in Brazil"},"Batak, Bulgaria":{"thumbnail":"https://upload.wikimedia.org/wikipedia/commons/6/6f/BUL_%D0%91%D0%B0%D1%82%D0%B0%D0%BA_COA.gif","thumbnail__source":"File:BUL_Батак_COA.gif","lat":41.95,"lon":24.21666667,"title":"Batak, Bulgaria","description":"town in Bulgaria"},"Madara Rider":{"thumbnail":"https://upload.wikimedia.org/wikipedia/commons/thumb/1/18/JE%C5%B9DZIEC_Z_MADARY.JPG/400px-JE%C5%B9DZIEC_Z_MADARY.JPG","thumbnail__source":"https://upload.wikimedia.org/wikipedia/commons/thumb/1/18/JE%C5%B9DZIEC_Z_MADARY.JPG/120px-JE%C5%B9DZIEC_Z_MADARY.JPG","lat":43.27669444,"lon":27.11955556,"title":"Madara Rider","description":"sculpture"},"Rila Monastery":{"thumbnail":"https://upload.wikimedia.org/wikipedia/commons/thumb/4/46/Rila_Monastery%2C_August_2013.jpg/400px-Rila_Monastery%2C_August_2013.jpg","thumbnail__source":"https://upload.wikimedia.org/wikipedia/commons/thumb/4/46/Rila_Monastery%2C_August_2013.jpg/120px-Rila_Monastery%2C_August_2013.jpg","lat":42.13333333,"lon":23.34027778,"title":"Rila Monastery","description":"Eastern Orthodox monastery in Bulgaria"},"Thracian Tomb of Kazanlak":{"thumbnail":"https://upload.wikimedia.org/wikipedia/commons/thumb/1/18/Kazanluk_1.jpg/400px-Kazanluk_1.jpg","thumbnail__source":"https://upload.wikimedia.org/wikipedia/commons/thumb/1/18/Kazanluk_1.jpg/120px-Kazanluk_1.jpg","lat":42.62576,"lon":25.39919,"title":"Thracian Tomb of Kazanlak","description":"tomb in Bulgaria"},"Srebarna Nature Reserve":{"thumbnail":"https://upload.wikimedia.org/wikipedia/commons/thumb/a/ae/Dalmatian_Pelican_and_Great_Cormorant_in_danube_delta.jpg/400px-Dalmatian_Pelican_and_Great_Cormorant_in_danube_delta.jpg","thumbnail__source":"https://upload.wikimedia.org/wikipedia/commons/thumb/a/ae/Dalmatian_Pelican_and_Great_Cormorant_in_danube_delta.jpg/120px-Dalmatian_Pelican_and_Great_Cormorant_in_danube_delta.jpg","lat":44.11444444,"lon":27.07805556,"title":"Srebarna Nature Reserve","description":"lake in Bulgaria, Biosphere Reserve in Bulgaria"},"Bachkovo Monastery":{"thumbnail":"https://upload.wikimedia.org/wikipedia/commons/thumb/c/c6/Panorama_Bachkovo_Monastery.jpg/320px-Panorama_Bachkovo_Monastery.jpg","thumbnail__source":"File:Panorama_Bachkovo_Monastery.jpg","lat":41.94222222,"lon":24.84944444,"title":"Bachkovo Monastery","description":"monastery in Bulgaria"},"Troyan Monastery":{"thumbnail":"https://upload.wikimedia.org/wikipedia/commons/thumb/1/1f/Troyan-monastery-imagesfrombulgaria.JPG/400px-Troyan-monastery-imagesfrombulgaria.JPG","thumbnail__source":"https://upload.wikimedia.org/wikipedia/commons/thumb/1/1f/Troyan-monastery-imagesfrombulgaria.JPG/120px-Troyan-monastery-imagesfrombulgaria.JPG","lat":42.8625,"lon":24.78055556,"title":"Troyan Monastery","description":"monastery"},"Dryanovo Monastery":{"thumbnail":"https://upload.wikimedia.org/wikipedia/commons/thumb/b/b5/Monasterychurchinterior.jpg/400px-Monasterychurchinterior.jpg","thumbnail__source":"File:Monasterychurchinterior.jpg","lat":42.95083333,"lon":25.43194444,"title":"Dryanovo Monastery","description":"monastery"},"Ledenika":{"thumbnail":"https://upload.wikimedia.org/wikipedia/commons/thumb/8/8a/LedenikaCave.jpg/400px-LedenikaCave.jpg","thumbnail__source":"https://upload.wikimedia.org/wikipedia/commons/thumb/8/8a/LedenikaCave.jpg/120px-LedenikaCave.jpg","lat":43.20444444,"lon":23.49111111,"title":"Ledenika","description":"cave in Bulgaria"},"Baba Vida":{"thumbnail":"https://upload.wikimedia.org/wikipedia/commons/thumb/e/ed/Baba_Vida_Klearchos_1.jpg/400px-Baba_Vida_Klearchos_1.jpg","thumbnail__source":"https://upload.wikimedia.org/wikipedia/commons/thumb/e/ed/Baba_Vida_Klearchos_1.jpg/120px-Baba_Vida_Klearchos_1.jpg","lat":43.99305556,"lon":22.88666667,"title":"Baba Vida","description":"fortress in Bulgaria"},"Vidin":{"thumbnail":"https://upload.wikimedia.org/wikipedia/commons/thumb/7/7f/Vidin_Province%2C_Bulgaria.jpg/400px-Vidin_Province%2C_Bulgaria.jpg","thumbnail__source":"https://upload.wikimedia.org/wikipedia/commons/thumb/7/7f/Vidin_Province%2C_Bulgaria.jpg/105px-Vidin_Province%2C_Bulgaria.jpg","lat":44,"lon":22.86666667,"title":"Vidin","description":"town in Bulgaria"},"Samokov":{"thumbnail":"https://upload.wikimedia.org/wikipedia/commons/thumb/a/aa/Samokov-History-museum-monument-Zahari-Zograf.jpg/400px-Samokov-History-museum-monument-Zahari-Zograf.jpg","thumbnail__source":"https://upload.wikimedia.org/wikipedia/commons/thumb/a/aa/Samokov-History-museum-monument-Zahari-Zograf.jpg/120px-Samokov-History-museum-monument-Zahari-Zograf.jpg","lat":42.33333333,"lon":23.55,"title":"Samokov","description":"town in Bulgaria"},"Asenovgrad":{"thumbnail":"https://upload.wikimedia.org/wikipedia/commons/thumb/d/de/Asenovgrad-centyr.jpg/400px-Asenovgrad-centyr.jpg","thumbnail__source":"File:Asenovgrad-centyr.jpg","lat":42.01666667,"lon":24.86666667,"title":"Asenovgrad","description":"town in Bulgaria"},"Sozopol":{"thumbnail":"https://upload.wikimedia.org/wikipedia/commons/thumb/6/6c/Sozopol2.jpg/400px-Sozopol2.jpg","thumbnail__source":"https://upload.wikimedia.org/wikipedia/commons/thumb/6/6c/Sozopol2.jpg/120px-Sozopol2.jpg","lat":42.41666667,"lon":27.7,"title":"Sozopol","description":"town in Bulgaria"},"Razgrad":{"thumbnail":"https://upload.wikimedia.org/wikipedia/commons/thumb/f/fd/Collage_of_views_of_Razgrad.png/400px-Collage_of_views_of_Razgrad.png","thumbnail__source":"https://upload.wikimedia.org/wikipedia/commons/thumb/f/fd/Collage_of_views_of_Razgrad.png/120px-Collage_of_views_of_Razgrad.png","lat":43.53333333,"lon":26.51666667,"title":"Razgrad","description":"town in Bulgaria"},"Koprivshtitsa":{"thumbnail":"https://upload.wikimedia.org/wikipedia/commons/thumb/f/ff/Bulgaria_Koprivshtica_10.JPG/400px-Bulgaria_Koprivshtica_10.JPG","thumbnail__source":"https://upload.wikimedia.org/wikipedia/commons/thumb/f/ff/Bulgaria_Koprivshtica_10.JPG/120px-Bulgaria_Koprivshtica_10.JPG","lat":42.63333333,"lon":24.35,"title":"Koprivshtitsa","description":"human settlement"},"Bozhentsi":{"thumbnail":"https://upload.wikimedia.org/wikipedia/commons/thumb/7/76/Bozhentsi_E754.jpg/400px-Bozhentsi_E754.jpg","thumbnail__source":"https://upload.wikimedia.org/wikipedia/commons/thumb/7/76/Bozhentsi_E754.jpg/120px-Bozhentsi_E754.jpg","lat":42.86666667,"lon":25.41666667,"title":"Bozhentsi","description":"village in Bulgaria"},"Blagoevgrad":{"thumbnail":"https://upload.wikimedia.org/wikipedia/commons/thumb/3/3b/Blagoevgrad.Downtown.jpg/400px-Blagoevgrad.Downtown.jpg","thumbnail__source":"https://upload.wikimedia.org/wikipedia/commons/thumb/3/3b/Blagoevgrad.Downtown.jpg/120px-Blagoevgrad.Downtown.jpg","lat":42.01666667,"lon":23.1,"title":"Blagoevgrad","description":"city in Bulgaria"},"Perperikon":{"thumbnail":"https://upload.wikimedia.org/wikipedia/commons/thumb/2/25/Perperikon_Nenko_Lazarow_023.JPG/400px-Perperikon_Nenko_Lazarow_023.JPG","thumbnail__source":"https://upload.wikimedia.org/wikipedia/commons/thumb/2/25/Perperikon_Nenko_Lazarow_023.JPG/120px-Perperikon_Nenko_Lazarow_023.JPG","lat":41.71472222,"lon":25.46527778,"title":"Perperikon"},"Rupite":{"thumbnail":"https://upload.wikimedia.org/wikipedia/commons/thumb/a/a1/Kozhuh-rupite-imagesfrombulgaria.jpg/400px-Kozhuh-rupite-imagesfrombulgaria.jpg","thumbnail__source":"https://upload.wikimedia.org/wikipedia/commons/thumb/a/a1/Kozhuh-rupite-imagesfrombulgaria.jpg/120px-Kozhuh-rupite-imagesfrombulgaria.jpg","lat":41.43333333,"lon":23.25,"title":"Rupite"},"Oborishte":{"thumbnail":"https://upload.wikimedia.org/wikipedia/commons/thumb/7/74/Oborishte127.JPG/400px-Oborishte127.JPG","thumbnail__source":"https://upload.wikimedia.org/wikipedia/commons/thumb/7/74/Oborishte127.JPG/120px-Oborishte127.JPG","lat":42.51666667,"lon":24.06666667,"title":"Oborishte","description":"village in Pazardzhik Province, Bulgaria"},"Strandzha":{"thumbnail":"https://upload.wikimedia.org/wikipedia/commons/thumb/a/a0/Strandzha-dinev-2.jpg/400px-Strandzha-dinev-2.jpg","thumbnail__source":"https://upload.wikimedia.org/wikipedia/commons/thumb/a/a0/Strandzha-dinev-2.jpg/120px-Strandzha-dinev-2.jpg","lat":42.0125,"lon":27.60861111,"title":"Strandzha","description":"mountain range"},"Pirin":{"thumbnail":"https://upload.wikimedia.org/wikipedia/commons/thumb/f/fc/Pirin-mountains-Bansko.jpg/400px-Pirin-mountains-Bansko.jpg","thumbnail__source":"https://upload.wikimedia.org/wikipedia/commons/thumb/f/fc/Pirin-mountains-Bansko.jpg/120px-Pirin-mountains-Bansko.jpg","lat":41.76361111,"lon":23.39944444,"title":"Pirin","description":"mountain range"},"Bansko":{"thumbnail":"https://upload.wikimedia.org/wikipedia/commons/thumb/a/aa/Street_with_old_houses.JPG/400px-Street_with_old_houses.JPG","thumbnail__source":"https://upload.wikimedia.org/wikipedia/commons/thumb/a/aa/Street_with_old_houses.JPG/120px-Street_with_old_houses.JPG","lat":41.83333333,"lon":23.5,"title":"Bansko","description":"town in Bulgaria"},"Pamporovo":{"thumbnail":"https://upload.wikimedia.org/wikipedia/commons/thumb/6/69/Pamporovoresort.jpg/400px-Pamporovoresort.jpg","thumbnail__source":"https://upload.wikimedia.org/wikipedia/commons/thumb/6/69/Pamporovoresort.jpg/120px-Pamporovoresort.jpg","lat":41.65,"lon":24.68333333,"title":"Pamporovo"},"Borovets":{"thumbnail":"https://upload.wikimedia.org/wikipedia/commons/thumb/7/75/Borovets.jpg/400px-Borovets.jpg","thumbnail__source":"https://upload.wikimedia.org/wikipedia/commons/thumb/7/75/Borovets.jpg/120px-Borovets.jpg","lat":42.26444444,"lon":23.60694444,"title":"Borovets","description":"mountain resort in Sofia Province, Bulgaria"},"Chepelare":{"thumbnail":"https://upload.wikimedia.org/wikipedia/commons/thumb/a/a2/Chepelare_school_Iankov.JPG/320px-Chepelare_school_Iankov.JPG","thumbnail__source":"File:Chepelare_school_Iankov.JPG","lat":41.72583333,"lon":24.68444444,"title":"Chepelare","description":"human settlement"},"Albena":{"thumbnail":"https://upload.wikimedia.org/wikipedia/commons/thumb/0/0e/Albena_resort_Boby_Dimitrov.jpg/400px-Albena_resort_Boby_Dimitrov.jpg","thumbnail__source":"https://upload.wikimedia.org/wikipedia/commons/thumb/0/0e/Albena_resort_Boby_Dimitrov.jpg/120px-Albena_resort_Boby_Dimitrov.jpg","lat":43.36916667,"lon":28.08111111,"title":"Albena","description":"human settlement"},"Golden Sands":{"thumbnail":"https://upload.wikimedia.org/wikipedia/commons/thumb/d/d7/Goldstrand.jpg/400px-Goldstrand.jpg","thumbnail__source":"https://upload.wikimedia.org/wikipedia/commons/thumb/d/d7/Goldstrand.jpg/120px-Goldstrand.jpg","lat":43.2911076,"lon":28.0268417,"title":"Golden Sands","description":"Spa Town"},"Primorsko":{"thumbnail":"https://upload.wikimedia.org/wikipedia/commons/thumb/e/e3/Town_of_Primorsko_aerial_Boby_Dimitrov.jpg/400px-Town_of_Primorsko_aerial_Boby_Dimitrov.jpg","thumbnail__source":"https://upload.wikimedia.org/wikipedia/commons/thumb/e/e3/Town_of_Primorsko_aerial_Boby_Dimitrov.jpg/120px-Town_of_Primorsko_aerial_Boby_Dimitrov.jpg","lat":42.26666667,"lon":27.76666667,"title":"Primorsko","description":"town in Bulgaria"},"Sveti Vlas":{"thumbnail":"https://upload.wikimedia.org/wikipedia/commons/thumb/6/65/Dinevi_marina_at_St_Vlas_resort.jpg/400px-Dinevi_marina_at_St_Vlas_resort.jpg","thumbnail__source":"https://upload.wikimedia.org/wikipedia/commons/thumb/6/65/Dinevi_marina_at_St_Vlas_resort.jpg/120px-Dinevi_marina_at_St_Vlas_resort.jpg","lat":42.71666667,"lon":27.76666667,"title":"Sveti Vlas","description":"human settlement"},"Sunny Beach":{"thumbnail":"https://upload.wikimedia.org/wikipedia/commons/thumb/c/cd/Sanny_beach._Foto_by_Victor_Belousov._-_panoramio_-_Victor_Belousov_%284%29.jpg/400px-Sanny_beach._Foto_by_Victor_Belousov._-_panoramio_-_Victor_Belousov_%284%29.jpg","thumbnail__source":"https://upload.wikimedia.org/wikipedia/commons/thumb/c/cd/Sanny_beach._Foto_by_Victor_Belousov._-_panoramio_-_Victor_Belousov_%284%29.jpg/120px-Sanny_beach._Foto_by_Victor_Belousov._-_panoramio_-_Victor_Belousov_%284%29.jpg","lat":42.69305556,"lon":27.70833333,"title":"Sunny Beach","description":"human settlement"},"Haskovo":{"thumbnail":"https://upload.wikimedia.org/wikipedia/commons/thumb/2/27/%D0%98%D0%B7%D0%B3%D0%BB%D0%B5%D0%B4_%D0%BE%D1%82_%D0%9A%D0%B0%D0%BC%D0%B1%D0%B0%D0%BD%D0%B0%D1%80%D0%B8%D1%8F%D1%82%D0%B0_%D0%B2_%D0%A5%D0%B0%D1%81%D0%BA%D0%BE%D0%B2%D0%BE.JPG/400px-%D0%98%D0%B7%D0%B3%D0%BB%D0%B5%D0%B4_%D0%BE%D1%82_%D0%9A%D0%B0%D0%BC%D0%B1%D0%B0%D0%BD%D0%B0%D1%80%D0%B8%D1%8F%D1%82%D0%B0_%D0%B2_%D0%A5%D0%B0%D1%81%D0%BA%D0%BE%D0%B2%D0%BE.JPG","thumbnail__source":"https://upload.wikimedia.org/wikipedia/commons/thumb/2/27/%D0%98%D0%B7%D0%B3%D0%BB%D0%B5%D0%B4_%D0%BE%D1%82_%D0%9A%D0%B0%D0%BC%D0%B1%D0%B0%D0%BD%D0%B0%D1%80%D0%B8%D1%8F%D1%82%D0%B0_%D0%B2_%D0%A5%D0%B0%D1%81%D0%BA%D0%BE%D0%B2%D0%BE.JPG/120px-%D0%98%D0%B7%D0%B3%D0%BB%D0%B5%D0%B4_%D0%BE%D1%82_%D0%9A%D0%B0%D0%BC%D0%B1%D0%B0%D0%BD%D0%B0%D1%80%D0%B8%D1%8F%D1%82%D0%B0_%D0%B2_%D0%A5%D0%B0%D1%81%D0%BA%D0%BE%D0%B2%D0%BE.JPG","lat":41.93333333,"lon":25.56666667,"title":"Haskovo","description":"city in Bulgaria"},"Lake Tanganyika":{"thumbnail":"https://upload.wikimedia.org/wikipedia/commons/thumb/4/46/STS51G-034-0012_Lake_Tanganyika_June1985.jpg/400px-STS51G-034-0012_Lake_Tanganyika_June1985.jpg","thumbnail__source":"https://upload.wikimedia.org/wikipedia/commons/thumb/4/46/STS51G-034-0012_Lake_Tanganyika_June1985.jpg/120px-STS51G-034-0012_Lake_Tanganyika_June1985.jpg","lat":-6.5,"lon":29.83333333,"title":"Lake Tanganyika","description":"lake in Africa"},"Ta Prohm":{"thumbnail":"https://upload.wikimedia.org/wikipedia/commons/thumb/3/30/Angkor_SiemReap_Cambodia_Tha-Prom-Temple-01.jpg/400px-Angkor_SiemReap_Cambodia_Tha-Prom-Temple-01.jpg","thumbnail__source":"File:Angkor_SiemReap_Cambodia_Tha-Prom-Temple-01.jpg","lat":13.435,"lon":103.88916667,"title":"Ta Prohm","description":"geographical object"},"Tuol Sleng Genocide Museum":{"thumbnail":"https://upload.wikimedia.org/wikipedia/commons/thumb/2/2c/Tuol_Sleng.jpg/400px-Tuol_Sleng.jpg","thumbnail__source":"File:Tuol_Sleng.jpg","lat":11.54944444,"lon":104.91777778,"title":"Tuol Sleng Genocide Museum","description":"A school converted into Cambodia's most important prison in 1975. More than 14,000 people were tortured here before being killed at the killing fields; only 8 prisoners made it out alive. The museum is easily accessible and a must-see for everyone interested in Cambodia's horrific past. The infamous \"skull map\" has been dismantled, although there are still skulls stacked in cabinets, implements of torture and disturbing photographs of people dying. For an introduction and further reading, try David Chandler's Voices from S-21 (ISBN 0520222474). Documentary movie S-21 can be purchased in Phnom Penh for USD1.50-2. There is also a short movie screening featuring some survivors that plays at 09:30 upstairs in the far building. A hefty slice of your Tuol Sleng entrance fee will go into the pocket of the museum's director, who is the son of the responsible government minister. (This is perhaps the main reason the museum is in rather shabby condition, and the displays so unimaginative.) And a warning to those who patronize the souvenir shop. Don't get conned into buying some vintage Rolex, Patek Philippe, or Omega watches. They are fakes and are worthless. The owner is very convincing and will tell you that it is a collection from her husband. Instead, right across from the museum (No 54 & 56, St 113, Phnom Penh is a little shop called CHA (http://www3.online.com.kh/users/wthanchashop) that sells inexpensive handmade goods that are made by women disabled from polio and land mines. If you ask, you will also be able to tour the shop, meeting the female workers and seeing where they study English."},"Preah Monivong National Park":{"thumbnail":"https://upload.wikimedia.org/wikipedia/commons/thumb/8/8d/Lan_Thi%C3%AAn_1.jpg/400px-Lan_Thi%C3%AAn_1.jpg","thumbnail__source":"File:Lan_Thiên_1.jpg","lat":10.86204693,"lon":104.03222455,"title":"Preah Monivong National Park"},"British Columbia":{"thumbnail":"https://upload.wikimedia.org/wikipedia/commons/thumb/6/67/BC-relief.png/320px-BC-relief.png","thumbnail__source":"File:BC-relief.png","lat":54,"lon":-125,"title":"British Columbia","description":"province of Canada"},"Haida Gwaii":{"thumbnail":"https://upload.wikimedia.org/wikipedia/commons/thumb/b/b5/Haida_Heritage_Centre.jpg/400px-Haida_Heritage_Centre.jpg","thumbnail__source":"https://upload.wikimedia.org/wikipedia/commons/thumb/b/b5/Haida_Heritage_Centre.jpg/120px-Haida_Heritage_Centre.jpg","lat":53,"lon":-132,"title":"Haida Gwaii","description":"archipelago on the North Coast of British Columbia, Canada"},"Vancouver Island":{"thumbnail":"https://upload.wikimedia.org/wikipedia/commons/thumb/5/5f/Vancouver-island-relief.jpg/400px-Vancouver-island-relief.jpg","thumbnail__source":"https://upload.wikimedia.org/wikipedia/commons/thumb/5/5f/Vancouver-island-relief.jpg/120px-Vancouver-island-relief.jpg","lat":49.5,"lon":-125.5,"title":"Vancouver Island","description":"island of Canada"},"Yukon":{"thumbnail":"https://upload.wikimedia.org/wikipedia/commons/thumb/e/e5/Ca%C3%B1%C3%B3n_Miles%2C_Yuk%C3%B3n%2C_Canad%C3%A1%2C_2017-08-26%2C_DD_140.jpg/320px-Ca%C3%B1%C3%B3n_Miles%2C_Yuk%C3%B3n%2C_Canad%C3%A1%2C_2017-08-26%2C_DD_140.jpg","thumbnail__source":"File:Cañón_Miles,_Yukón,_Canadá,_2017-08-26,_DD_140.jpg","lat":64,"lon":-135,"title":"Yukon","description":"territory of Canada"},"Tombstone Territorial Park":{"thumbnail":"https://upload.wikimedia.org/wikipedia/commons/thumb/9/9d/2015-08-25_Tombstone_Territorial_Park_1795.jpg/400px-2015-08-25_Tombstone_Territorial_Park_1795.jpg","thumbnail__source":"https://upload.wikimedia.org/wikipedia/commons/thumb/9/9d/2015-08-25_Tombstone_Territorial_Park_1795.jpg/120px-2015-08-25_Tombstone_Territorial_Park_1795.jpg","lat":64.08286,"lon":-138.5109,"title":"Tombstone Territorial Park","description":"protected area"},"Alberta":{"thumbnail":"https://upload.wikimedia.org/wikipedia/commons/thumb/f/ff/AB-physical_map.png/320px-AB-physical_map.png","thumbnail__source":"File:AB-physical_map.png","lat":55,"lon":-115,"title":"Alberta","description":"province of Canada"},"Drumheller":{"thumbnail":"https://upload.wikimedia.org/wikipedia/commons/thumb/4/45/Drumheller_dinosaurmouth.jpg/400px-Drumheller_dinosaurmouth.jpg","thumbnail__source":"https://upload.wikimedia.org/wikipedia/commons/thumb/4/45/Drumheller_dinosaurmouth.jpg/120px-Drumheller_dinosaurmouth.jpg","lat":51.46361111,"lon":-112.71944444,"title":"Drumheller","description":"town of east-central Alberta, Canada"},"Northwest Territories":{"thumbnail":"https://upload.wikimedia.org/wikipedia/commons/thumb/c/c7/Franklin%27s_canoes_in_gale.jpg/320px-Franklin%27s_canoes_in_gale.jpg","thumbnail__source":"File:Franklin's_canoes_in_gale.jpg","lat":66,"lon":-119,"title":"Northwest Territories","description":"territory of Canada"},"Nunavut":{"thumbnail":"https://upload.wikimedia.org/wikipedia/en/c/cd/Coat_of_Arms_of_Nunavut.png","thumbnail__source":"File:Coat_of_Arms_of_Nunavut.png","lat":73,"lon":-91,"title":"Nunavut","description":"territory of Canada"},"Baffin Island":{"thumbnail":"https://upload.wikimedia.org/wikipedia/commons/thumb/b/b6/Baffin.png/400px-Baffin.png","thumbnail__source":"https://upload.wikimedia.org/wikipedia/commons/thumb/b/b6/Baffin.png/110px-Baffin.png","lat":69,"lon":-72,"title":"Baffin Island","description":"mostly Arctic island in Nunavut, Canada"},"Ellesmere Island":{"thumbnail":"https://upload.wikimedia.org/wikipedia/commons/thumb/9/99/River_Beauty.jpg/400px-River_Beauty.jpg","thumbnail__source":"https://upload.wikimedia.org/wikipedia/commons/thumb/9/99/River_Beauty.jpg/120px-River_Beauty.jpg","lat":79.83333333,"lon":-78,"title":"Ellesmere Island","description":"part of the Qikiqtaaluk Region of the Canadian territory of Nunavut"},"Ontario":{"thumbnail":"https://upload.wikimedia.org/wikipedia/commons/thumb/a/a7/BlackRiver1.JPG/320px-BlackRiver1.JPG","thumbnail__source":"File:BlackRiver1.JPG","lat":50,"lon":-85,"title":"Ontario","description":"province of Canada"},"Quebec":{"thumbnail":"https://upload.wikimedia.org/wikipedia/commons/thumb/7/78/Samuel_de_Champlain_arrive_%C3%A0_Qu%C3%A9bec_-_George_Agnew_Reid_-_1909.jpg/320px-Samuel_de_Champlain_arrive_%C3%A0_Qu%C3%A9bec_-_George_Agnew_Reid_-_1909.jpg","thumbnail__source":"File:Samuel_de_Champlain_arrive_à_Québec_-_George_Agnew_Reid_-_1909.jpg","lat":53,"lon":-70,"title":"Quebec","description":"province of Canada"},"Gatineau":{"thumbnail":"https://upload.wikimedia.org/wikipedia/commons/thumb/5/59/Gatineau_%28view_from_the_Peace_Tower_of_Parliament_Centre_Block%29.JPG/400px-Gatineau_%28view_from_the_Peace_Tower_of_Parliament_Centre_Block%29.JPG","thumbnail__source":"File:Gatineau_(view_from_the_Peace_Tower_of_Parliament_Centre_Block).JPG","lat":45.48333333,"lon":-75.65,"title":"Gatineau","description":"city in Québec, Canada"},"New Brunswick":{"thumbnail":"https://upload.wikimedia.org/wikipedia/en/thumb/5/55/NewBrunswick_CoatOfArms.png/320px-NewBrunswick_CoatOfArms.png","thumbnail__source":"File:NewBrunswick_CoatOfArms.png","lat":46,"lon":-66,"title":"New Brunswick","description":"province of Canada"},"Atlantic Canada":{"thumbnail":"https://upload.wikimedia.org/wikipedia/commons/thumb/8/81/Atlantic_Canada.svg/400px-Atlantic_Canada.svg.png","thumbnail__source":"https://upload.wikimedia.org/wikipedia/commons/thumb/8/81/Atlantic_Canada.svg/120px-Atlantic_Canada.svg.png","lat":47,"lon":-62,"title":"Atlantic Canada","description":"four provinces of Canada on the Atlantic Ocean"},"Nova Scotia":{"thumbnail":"https://upload.wikimedia.org/wikipedia/commons/thumb/3/35/Novascotia_topo.png/320px-Novascotia_topo.png","thumbnail__source":"File:Novascotia_topo.png","lat":45,"lon":-63,"title":"Nova Scotia","description":"province of Canada"},"Regional Municipality of Waterloo":{"thumbnail":"https://upload.wikimedia.org/wikipedia/commons/thumb/d/dc/Conestoga_Wagon_1883.jpg/320px-Conestoga_Wagon_1883.jpg","thumbnail__source":"File:Conestoga_Wagon_1883.jpg","lat":43.46666667,"lon":-80.5,"title":"Regional Municipality of Waterloo","description":"regional municipality in Ontario"},"Louisbourg":{"thumbnail":"https://upload.wikimedia.org/wikipedia/commons/thumb/6/6b/Louisbourg_harbor%2C_NS.jpg/400px-Louisbourg_harbor%2C_NS.jpg","thumbnail__source":"https://upload.wikimedia.org/wikipedia/commons/thumb/6/6b/Louisbourg_harbor%2C_NS.jpg/120px-Louisbourg_harbor%2C_NS.jpg","lat":45.91986111,"lon":-59.97280556,"title":"Louisbourg","description":"unincorporated town in Nova Scotia, Canada"},"Prince Edward Island":{"thumbnail":"https://upload.wikimedia.org/wikipedia/en/e/e9/Coat_of_Arms_of_Prince_Edward_Island.png","thumbnail__source":"File:Coat_of_Arms_of_Prince_Edward_Island.png","lat":46.25,"lon":-63,"title":"Prince Edward Island","description":"province of Canada"},"Gros Morne National Park":{"thumbnail":"https://upload.wikimedia.org/wikipedia/commons/thumb/6/69/NLW_GrosMorne4_tango7174.jpg/400px-NLW_GrosMorne4_tango7174.jpg","thumbnail__source":"https://upload.wikimedia.org/wikipedia/commons/thumb/6/69/NLW_GrosMorne4_tango7174.jpg/120px-NLW_GrosMorne4_tango7174.jpg","lat":49.68944444,"lon":-57.73805556,"title":"Gros Morne National Park","description":"National Park on the west coast of Newfoundland"},"Great Northern Peninsula":{"thumbnail":"https://upload.wikimedia.org/wikipedia/commons/thumb/1/16/GrNorthPeninsulaNewfld.png/400px-GrNorthPeninsulaNewfld.png","thumbnail__source":"https://upload.wikimedia.org/wikipedia/commons/thumb/1/16/GrNorthPeninsulaNewfld.png/120px-GrNorthPeninsulaNewfld.png","lat":50.4635,"lon":-56.76863889,"title":"Great Northern Peninsula","description":"peninsula"},"Edmonton":{"thumbnail":"https://upload.wikimedia.org/wikipedia/commons/thumb/c/cf/Edmontonmontage2.jpg/400px-Edmontonmontage2.jpg","thumbnail__source":"https://upload.wikimedia.org/wikipedia/commons/thumb/c/cf/Edmontonmontage2.jpg/84px-Edmontonmontage2.jpg","lat":53.53333333,"lon":-113.5,"title":"Edmonton","description":"capital city of province of Alberta, Canada"},"Niagara-on-the-Lake":{"thumbnail":"https://upload.wikimedia.org/wikipedia/commons/thumb/3/36/Niagara_on_the_lake.jpg/400px-Niagara_on_the_lake.jpg","thumbnail__source":"https://upload.wikimedia.org/wikipedia/commons/thumb/3/36/Niagara_on_the_lake.jpg/120px-Niagara_on_the_lake.jpg","lat":43.25527778,"lon":-79.07166667,"title":"Niagara-on-the-Lake","description":"town in Niagara Region, Ontario"},"Fogo, Cape Verde":{"thumbnail":"https://upload.wikimedia.org/wikipedia/commons/thumb/1/1e/Bela-vista-net-Fogo-map.jpg/400px-Bela-vista-net-Fogo-map.jpg","thumbnail__source":"https://upload.wikimedia.org/wikipedia/commons/thumb/1/1e/Bela-vista-net-Fogo-map.jpg/120px-Bela-vista-net-Fogo-map.jpg","lat":14.95,"lon":-24.3425,"title":"Fogo, Cape Verde","description":"island in Cape Verde"},"Lake Chad":{"thumbnail":"https://upload.wikimedia.org/wikipedia/commons/thumb/7/7f/Lake_Chad_from_Apollo_7.jpg/400px-Lake_Chad_from_Apollo_7.jpg","thumbnail__source":"https://upload.wikimedia.org/wikipedia/commons/thumb/7/7f/Lake_Chad_from_Apollo_7.jpg/120px-Lake_Chad_from_Apollo_7.jpg","lat":13,"lon":14,"title":"Lake Chad","description":"lake in Africa"},"Ennedi Plateau":{"thumbnail":"https://upload.wikimedia.org/wikipedia/commons/thumb/2/2a/24_Kamele_ziehen_zur_Wasserstelle_im_Ennedi-Gebirge_im_Tschad.jpg/400px-24_Kamele_ziehen_zur_Wasserstelle_im_Ennedi-Gebirge_im_Tschad.jpg","thumbnail__source":"https://upload.wikimedia.org/wikipedia/commons/thumb/2/2a/24_Kamele_ziehen_zur_Wasserstelle_im_Ennedi-Gebirge_im_Tschad.jpg/120px-24_Kamele_ziehen_zur_Wasserstelle_im_Ennedi-Gebirge_im_Tschad.jpg","lat":17.04166667,"lon":21.86277778,"title":"Ennedi Plateau","description":"mountain range"},"Rancagua":{"thumbnail":"https://upload.wikimedia.org/wikipedia/commons/thumb/e/eb/La_Rancagua.jpg/400px-La_Rancagua.jpg","thumbnail__source":"https://upload.wikimedia.org/wikipedia/commons/thumb/e/eb/La_Rancagua.jpg/73px-La_Rancagua.jpg","lat":-34.16666667,"lon":-70.75,"title":"Rancagua","description":"city in O'Higgins Region, Chile"},"Easter Island":{"thumbnail":"https://upload.wikimedia.org/wikipedia/commons/thumb/7/75/Moais%2C_Isla_de_Pascua._-_panoramio.jpg/400px-Moais%2C_Isla_de_Pascua._-_panoramio.jpg","thumbnail__source":"https://upload.wikimedia.org/wikipedia/commons/thumb/7/75/Moais%2C_Isla_de_Pascua._-_panoramio.jpg/120px-Moais%2C_Isla_de_Pascua._-_panoramio.jpg","lat":-27.11666667,"lon":-109.36666667,"title":"Easter Island","description":"Polynesian island of Chile"},"Cochamó Valley":{"thumbnail":"https://upload.wikimedia.org/wikipedia/commons/thumb/1/14/Paredes_de_granito_en_La_Junta.jpg/400px-Paredes_de_granito_en_La_Junta.jpg","thumbnail__source":"https://upload.wikimedia.org/wikipedia/commons/thumb/1/14/Paredes_de_granito_en_La_Junta.jpg/120px-Paredes_de_granito_en_La_Junta.jpg","lat":-41.42,"lon":-72.13472222,"title":"Cochamó Valley"},"Talca":{"thumbnail":"https://upload.wikimedia.org/wikipedia/commons/thumb/1/1b/Montaje_de_Talca.jpg/400px-Montaje_de_Talca.jpg","thumbnail__source":"https://upload.wikimedia.org/wikipedia/commons/thumb/1/1b/Montaje_de_Talca.jpg/81px-Montaje_de_Talca.jpg","lat":-35.43333333,"lon":-71.66666667,"title":"Talca","description":"city in Chile"},"Algarrobo, Chile":{"thumbnail":"https://upload.wikimedia.org/wikipedia/commons/thumb/2/26/Panoramica_Algarrobo.JPG/400px-Panoramica_Algarrobo.JPG","thumbnail__source":"https://upload.wikimedia.org/wikipedia/commons/thumb/2/26/Panoramica_Algarrobo.JPG/120px-Panoramica_Algarrobo.JPG","lat":-33.39111111,"lon":-71.69277778,"title":"Algarrobo, Chile","description":"Chilean city and commune in San Antonio Province, Valparaíso Region"},"Jiuzhaigou":{"thumbnail":"https://upload.wikimedia.org/wikipedia/commons/thumb/f/f6/1_jiuzhaigou_valley_national_park_wu_hua_hai.jpg/400px-1_jiuzhaigou_valley_national_park_wu_hua_hai.jpg","thumbnail__source":"https://upload.wikimedia.org/wikipedia/commons/thumb/f/f6/1_jiuzhaigou_valley_national_park_wu_hua_hai.jpg/80px-1_jiuzhaigou_valley_national_park_wu_hua_hai.jpg","lat":33.2,"lon":103.9,"title":"Jiuzhaigou","description":"nature reserve and national park in northern Sichuan. China"},"Yunnan":{"thumbnail":"https://upload.wikimedia.org/wikipedia/commons/thumb/8/80/DianScuplture1.jpg/320px-DianScuplture1.jpg","thumbnail__source":"File:DianScuplture1.jpg","lat":25.05,"lon":101.86666667,"title":"Yunnan","description":"province of China"},"Dali City":{"thumbnail":"https://upload.wikimedia.org/wikipedia/commons/thumb/c/c5/Dali_Xiaguan_13.JPG/400px-Dali_Xiaguan_13.JPG","thumbnail__source":"https://upload.wikimedia.org/wikipedia/commons/thumb/c/c5/Dali_Xiaguan_13.JPG/120px-Dali_Xiaguan_13.JPG","lat":25.6,"lon":100.26666667,"title":"Dali City","description":"city in Yunnan, People's Republic of China"},"Guangxi":{"thumbnail":"https://upload.wikimedia.org/wikipedia/commons/thumb/9/92/1_li_jiang_guilin_yangshuo_2011.jpg/400px-1_li_jiang_guilin_yangshuo_2011.jpg","thumbnail__source":"https://upload.wikimedia.org/wikipedia/commons/thumb/9/92/1_li_jiang_guilin_yangshuo_2011.jpg/120px-1_li_jiang_guilin_yangshuo_2011.jpg","lat":23.6,"lon":108.3,"title":"Guangxi","description":"autonomous region of China"},"Zhangjiajie":{"thumbnail":"https://upload.wikimedia.org/wikipedia/commons/thumb/7/77/1_tianzishan_wulingyuan_zhangjiajie_2012.jpg/400px-1_tianzishan_wulingyuan_zhangjiajie_2012.jpg","thumbnail__source":"https://upload.wikimedia.org/wikipedia/commons/thumb/7/77/1_tianzishan_wulingyuan_zhangjiajie_2012.jpg/120px-1_tianzishan_wulingyuan_zhangjiajie_2012.jpg","lat":29.117,"lon":110.479,"title":"Zhangjiajie","description":"prefecture-level city in Hunan, China"},"Hunan":{"thumbnail":"https://upload.wikimedia.org/wikipedia/commons/a/a4/Zeng_Guofan.png","thumbnail__source":"File:Zeng_Guofan.png","lat":28.11265,"lon":112.98338,"title":"Hunan","description":"landlocked province in China"},"Guizhou":{"thumbnail":"https://upload.wikimedia.org/wikipedia/commons/thumb/0/0e/Huangguoshu_Waterfall_Guizhou_Province.jpg/400px-Huangguoshu_Waterfall_Guizhou_Province.jpg","thumbnail__source":"https://upload.wikimedia.org/wikipedia/commons/thumb/0/0e/Huangguoshu_Waterfall_Guizhou_Province.jpg/120px-Huangguoshu_Waterfall_Guizhou_Province.jpg","lat":26.83333333,"lon":106.83333333,"title":"Guizhou","description":"province of China"},"Mount Emei":{"thumbnail":"https://upload.wikimedia.org/wikipedia/commons/thumb/6/68/Mount_Emei_pic_1.jpg/400px-Mount_Emei_pic_1.jpg","thumbnail__source":"https://upload.wikimedia.org/wikipedia/commons/thumb/6/68/Mount_Emei_pic_1.jpg/80px-Mount_Emei_pic_1.jpg","lat":29.51972222,"lon":103.3325,"title":"Mount Emei","description":"mountain"},"Huangshan":{"thumbnail":"https://upload.wikimedia.org/wikipedia/commons/thumb/1/1d/Huangshan_pic_4.jpg/400px-Huangshan_pic_4.jpg","thumbnail__source":"https://upload.wikimedia.org/wikipedia/commons/thumb/1/1d/Huangshan_pic_4.jpg/120px-Huangshan_pic_4.jpg","lat":30.125,"lon":118.16666667,"title":"Huangshan","description":"mountain range in southern Anhui province in eastern China"},"Shanxi":{"thumbnail":"https://upload.wikimedia.org/wikipedia/commons/thumb/f/f8/Mount_Wutai.JPG/400px-Mount_Wutai.JPG","thumbnail__source":"https://upload.wikimedia.org/wikipedia/commons/thumb/f/f8/Mount_Wutai.JPG/120px-Mount_Wutai.JPG","lat":37.7,"lon":112.4,"title":"Shanxi","description":"province of China"},"Shandong":{"thumbnail":"https://upload.wikimedia.org/wikipedia/commons/thumb/8/86/Shou_Qiu_-_eastern_turtle_-_P1050845.JPG/320px-Shou_Qiu_-_eastern_turtle_-_P1050845.JPG","thumbnail__source":"File:Shou_Qiu_-_eastern_turtle_-_P1050845.JPG","lat":36.4,"lon":118.4,"title":"Shandong","description":"province of China"},"Mount Hua":{"thumbnail":"https://upload.wikimedia.org/wikipedia/commons/thumb/1/18/Hua_Shan.jpg/400px-Hua_Shan.jpg","thumbnail__source":"https://upload.wikimedia.org/wikipedia/commons/thumb/1/18/Hua_Shan.jpg/80px-Hua_Shan.jpg","lat":34.48333333,"lon":110.08333333,"title":"Mount Hua","description":"mountain in Shaanxi province, China"},"Shaanxi":{"thumbnail":"https://upload.wikimedia.org/wikipedia/commons/thumb/1/13/Giant_Wild_Goose_Pagoda.jpg/400px-Giant_Wild_Goose_Pagoda.jpg","thumbnail__source":"https://upload.wikimedia.org/wikipedia/commons/thumb/1/13/Giant_Wild_Goose_Pagoda.jpg/120px-Giant_Wild_Goose_Pagoda.jpg","lat":35.6,"lon":108.4,"title":"Shaanxi","description":"province of China"},"Mount Song":{"thumbnail":"https://upload.wikimedia.org/wikipedia/commons/thumb/3/39/Shuce_Cliff.jpg/320px-Shuce_Cliff.jpg","thumbnail__source":"File:Shuce_Cliff.jpg","lat":34.48472222,"lon":112.96027778,"title":"Mount Song","description":"mountain"},